parking,name,owner,address,postCode,email,telephone,type,capacity,numberOfLevels,covered,website,publicAccess,temporarilyClosed,intendedAudience,OpenStreetMap,latitude,longitude,shape,freeOfCharge,price,openingHours
https://data.velopark.be/data/Gemeente-Gavere_GA01,Mobipunt - Gavere,Gemeente Gavere,Burchtweg,9890,infrastructuur@gavere.be,093892960,https://data.velopark.be/openvelopark/terms#PublicBicycleParking,48,1,true,,true,false,Iedereen,https://www.openstreetmap.org/#map=18/50.93057134135154/3.6546917706073145,50.93057134135154,3.6546917706073145,"POLYGON ((3.654592730072181 50.93054294107341, 3.6547992601663277 50.93060126309675, 3.654848881033103 50.9305370243423, 3.6546450331479714 50.930477011741516, 3.654592730072181 50.930542941073355))",,,Mon_00:00-23:59;Tue_00:00-23:59;Wed_00:00-23:59;Thu_00:00-23:59;Fri_00:00-23:59;Sat_00:00-23:59;Sun_00:00-23:59
https://data.velopark.be/data/De-Fietsambassade-Gent_Emile-Braun-Plein,Emile Braun Plein,De Fietsambassade Gent,Emile Braunplein,9000,fietsendepot.defietsambassade@stad.gent,092667068,https://data.velopark.be/openvelopark/terms#PublicBicycleParking,80,1,true,https://fietsambassade.gent.be/nl/fiets-parkeren/fietsenparkings,true,false,,https://www.openstreetmap.org/#map=18/51.05406761590069/3.7237078417092557,51.05406761590069,3.7237078417092557,"POLYGON ((3.723668467719108 51.05414348588579, 3.7236349401064217 51.05408953390918, 3.72373015852645 51.05406592989959, 3.7237717327661812 51.054123253901906, 3.723668467719108 51.05414348588491))",true,,Mon_00:00-01:00&07:00-23:59;Tue_00:00-01:00&07:00-23:59;Wed_00:00-01:00&07:00-23:59;Thu_00:00-01:00&07:00-23:59;Fri_00:00-01:00&07:00-23:59;Sat_00:00-03:00&07:00-23:59;Sun_00:00-03:00&07:00-23:59
https://data.velopark.be/data/De-Fietsambassade-Gent_Korenmarkt,Korenmarkt,De Fietsambassade Gent,Pakhuisstraat,9000,fietsendepot.defietsambassade@stad.gent,092667068,https://data.velopark.be/openvelopark/terms#PublicBicycleParking,210,1,true,https://fietsambassade.gent.be/nl/fiets-parkeren/fietsenparkings,true,false,,https://www.openstreetmap.org/#map=18/51.05398837378354/3.7211719388142233,51.05398837378354,3.7211719388142233,"POLYGON ((3.7211324390955265 51.053985001775544, 3.7211378035135567 51.05390491651352, 3.7214395520277317 51.05391166054096, 3.7214341876097015 51.05398921678545, 3.7211324390955265 51.053985001775544))",true,,Mon_00:00-01:00&07:00-23:59;Tue_00:00-01:00&07:00-23:59;Wed_00:00-01:00&07:00-23:59;Thu_00:00-01:00&07:00-23:59;Fri_00:00-01:00&07:00-23:59;Sat_00:00-03:00&07:00-23:59;Sun_00:00-03:00&07:00-23:59
https://data.velopark.be/data/De-Lijn_204647, Steendorp Hemelrijkstraat,De Lijn,Kapelstraat 2,9140,,,https://data.velopark.be/openvelopark/terms#BicycleStand,5,1,false,https://www.delijn.be/en/contact/,true,false,,https://www.openstreetmap.org/#map=18/51.133052/4.277252,51.133052,4.277252,,true,,Mon_00:00-23:59;Tue_00:00-23:59;Wed_00:00-23:59;Thu_00:00-23:59;Fri_00:00-23:59;Sat_00:00-23:59;Sun_00:00-23:59
https://data.velopark.be/data/De-Lijn_205633, Kruibeke Scheldelei,De Lijn,Langestraat 120,9150,,,https://data.velopark.be/openvelopark/terms#BicycleStand,5,1,false,https://www.delijn.be/en/contact/,true,false,,https://www.openstreetmap.org/#map=18/51.176079/4.315807,51.176079,4.315807,,true,,Mon_00:00-23:59;Tue_00:00-23:59;Wed_00:00-23:59;Thu_00:00-23:59;Fri_00:00-23:59;Sat_00:00-23:59;Sun_00:00-23:59
https://data.velopark.be/data/De-Lijn_205635, Kruibeke Mercatorstraat,De Lijn,Bazelstraat 73,9150,,,https://data.velopark.be/openvelopark/terms#BicycleStand,5,1,false,https://www.delijn.be/en/contact/,true,false,,https://www.openstreetmap.org/#map=18/51.167268/4.310567,51.167268,4.310567,,true,,Mon_00:00-23:59;Tue_00:00-23:59;Wed_00:00-23:59;Thu_00:00-23:59;Fri_00:00-23:59;Sat_00:00-23:59;Sun_00:00-23:59
https://data.velopark.be/data/De-Lijn_205636, Kruibeke Moortelstraat,De Lijn,Bazelstraat 168,9150,,,https://data.velopark.be/openvelopark/terms#BicycleStand,5,1,false,https://www.delijn.be/en/contact/,true,false,,https://www.openstreetmap.org/#map=18/51.162093/4.305951,51.162093,4.305951,,true,,Mon_00:00-23:59;Tue_00:00-23:59;Wed_00:00-23:59;Thu_00:00-23:59;Fri_00:00-23:59;Sat_00:00-23:59;Sun_00:00-23:59
https://data.velopark.be/data/De-Lijn_218026, Kruishoutem Nieuw Plein Perron 1,De Lijn,Nieuw Plein 21,9770,,,https://data.velopark.be/openvelopark/terms#BicycleStand,5,1,false,https://www.delijn.be/en/contact/,true,false,,https://www.openstreetmap.org/#map=18/50.902824/3.526507,50.902824,3.526507,,true,,Mon_00:00-23:59;Tue_00:00-23:59;Wed_00:00-23:59;Thu_00:00-23:59;Fri_00:00-23:59;Sat_00:00-23:59;Sun_00:00-23:59
https://data.velopark.be/data/De-Lijn_218027, Kruishoutem Nieuw Plein Perron 2,De Lijn,Nieuw Plein 19,9770,,,https://data.velopark.be/openvelopark/terms#BicycleStand,5,1,false,https://www.delijn.be/en/contact/,true,false,,https://www.openstreetmap.org/#map=18/50.902885/3.526611,50.902885,3.526611,,true,,Mon_00:00-23:59;Tue_00:00-23:59;Wed_00:00-23:59;Thu_00:00-23:59;Fri_00:00-23:59;Sat_00:00-23:59;Sun_00:00-23:59
https://data.velopark.be/data/De-Lijn_202518, Kalken Belindestraat,De Lijn,Nerenweg,9270,,,https://data.velopark.be/openvelopark/terms#BicycleStand,5,1,false,https://www.delijn.be/en/contact/,true,false,,https://www.openstreetmap.org/#map=18/51.037438/3.899926,51.037438,3.899926,,true,,Mon_00:00-23:59;Tue_00:00-23:59;Wed_00:00-23:59;Thu_00:00-23:59;Fri_00:00-23:59;Sat_00:00-23:59;Sun_00:00-23:59
https://data.velopark.be/data/De-Lijn_202519, Kalken Steenbeekstraat,De Lijn,Nerenweg 156,9270,,,https://data.velopark.be/openvelopark/terms#BicycleStand,5,1,false,https://www.delijn.be/en/contact/,true,false,,https://www.openstreetmap.org/#map=18/51.036202/3.90494,51.036202,3.90494,,true,,Mon_00:00-23:59;Tue_00:00-23:59;Wed_00:00-23:59;Thu_00:00-23:59;Fri_00:00-23:59;Sat_00:00-23:59;Sun_00:00-23:59
https://data.velopark.be/data/De-Lijn_202521, Kalken Kerk,De Lijn,Vaartstraat,9270,,,https://data.velopark.be/openvelopark/terms#BicycleStand,5,1,false,https://www.delijn.be/en/contact/,true,false,,https://www.openstreetmap.org/#map=18/51.036367/3.917048,51.036367,3.917048,,true,,Mon_00:00-23:59;Tue_00:00-23:59;Wed_00:00-23:59;Thu_00:00-23:59;Fri_00:00-23:59;Sat_00:00-23:59;Sun_00:00-23:59
https://data.velopark.be/data/De-Lijn_202528, Kalken Gaverstraatje,De Lijn,Gaverstraat 44,9270,,,https://data.velopark.be/openvelopark/terms#BicycleStand,5,1,false,https://www.delijn.be/en/contact/,true,false,,https://www.openstreetmap.org/#map=18/51.044474/3.929011,51.044474,3.929011,,true,,Mon_00:00-23:59;Tue_00:00-23:59;Wed_00:00-23:59;Thu_00:00-23:59;Fri_00:00-23:59;Sat_00:00-23:59;Sun_00:00-23:59
https://data.velopark.be/data/De-Lijn_203520, Kalken Bieststraat,De Lijn,Nerenweg 40A,9270,,,https://data.velopark.be/openvelopark/terms#BicycleStand,5,1,false,https://www.delijn.be/en/contact/,true,false,,https://www.openstreetmap.org/#map=18/51.035796/3.911713,51.035796,3.911713,,true,,Mon_00:00-23:59;Tue_00:00-23:59;Wed_00:00-23:59;Thu_00:00-23:59;Fri_00:00-23:59;Sat_00:00-23:59;Sun_00:00-23:59
https://data.velopark.be/data/De-Lijn_203521, Kalken Kerk,De Lijn,Vaartstraat,9270,,,https://data.velopark.be/openvelopark/terms#BicycleStand,5,1,false,https://www.delijn.be/en/contact/,true,false,,https://www.openstreetmap.org/#map=18/51.036318/3.916998,51.036318,3.916998,,true,,Mon_00:00-23:59;Tue_00:00-23:59;Wed_00:00-23:59;Thu_00:00-23:59;Fri_00:00-23:59;Sat_00:00-23:59;Sun_00:00-23:59
https://data.velopark.be/data/De-Lijn_201691, Lovendegem Appensvoorde,De Lijn,Appensvoordestraat 108,9920,,,https://data.velopark.be/openvelopark/terms#BicycleStand,5,1,false,https://www.delijn.be/en/contact/,true,false,,https://www.openstreetmap.org/#map=18/51.098295/3.638281,51.098295,3.638281,,true,,Mon_00:00-23:59;Tue_00:00-23:59;Wed_00:00-23:59;Thu_00:00-23:59;Fri_00:00-23:59;Sat_00:00-23:59;Sun_00:00-23:59
https://data.velopark.be/data/De-Lijn_202369, Lovendegem Triestlaan,De Lijn,Molendreef,9920,,,https://data.velopark.be/openvelopark/terms#BicycleStand,5,1,false,https://www.delijn.be/en/contact/,true,false,,https://www.openstreetmap.org/#map=18/51.098315/3.610302,51.098315,3.610302,,true,,Mon_00:00-23:59;Tue_00:00-23:59;Wed_00:00-23:59;Thu_00:00-23:59;Fri_00:00-23:59;Sat_00:00-23:59;Sun_00:00-23:59
https://data.velopark.be/data/De-Lijn_202225, Maldegem Halledreef,De Lijn,Halledreef 15,9990,,,https://data.velopark.be/openvelopark/terms#BicycleStand,5,1,false,https://www.delijn.be/en/contact/,true,false,,https://www.openstreetmap.org/#map=18/51.181515/3.450335,51.181515,3.450335,,true,,Mon_00:00-23:59;Tue_00:00-23:59;Wed_00:00-23:59;Thu_00:00-23:59;Fri_00:00-23:59;Sat_00:00-23:59;Sun_00:00-23:59
https://data.velopark.be/data/De-Lijn_202059, Maldegem Markt perron 1,De Lijn,Marktstraat 25,9990,,,https://data.velopark.be/openvelopark/terms#BicycleStand,5,1,false,https://www.delijn.be/en/contact/,true,false,,https://www.openstreetmap.org/#map=18/51.208765/3.445931,51.208765,3.445931,,true,,Mon_00:00-23:59;Tue_00:00-23:59;Wed_00:00-23:59;Thu_00:00-23:59;Fri_00:00-23:59;Sat_00:00-23:59;Sun_00:00-23:59
https://data.velopark.be/data/De-Lijn_203940, Melle Gemeenteplein,De Lijn,Brusselsesteenweg 285B,9090,,,https://data.velopark.be/openvelopark/terms#BicycleStand,5,1,false,https://www.delijn.be/en/contact/,true,false,,https://www.openstreetmap.org/#map=18/51.003838/3.799747,51.003838,3.799747,,true,,Mon_00:00-23:59;Tue_00:00-23:59;Wed_00:00-23:59;Thu_00:00-23:59;Fri_00:00-23:59;Sat_00:00-23:59;Sun_00:00-23:59
https://data.velopark.be/data/De-Lijn_201895, Merelbeke Carpool Park & Ride E40-E17,De Lijn,Heidestraat,9820,,,https://data.velopark.be/openvelopark/terms#BicycleStand,5,1,false,https://www.delijn.be/en/contact/,true,false,,https://www.openstreetmap.org/#map=18/51.003725/3.763791,51.003725,3.763791,,true,,Mon_00:00-23:59;Tue_00:00-23:59;Wed_00:00-23:59;Thu_00:00-23:59;Fri_00:00-23:59;Sat_00:00-23:59;Sun_00:00-23:59
https://data.velopark.be/data/De-Lijn_203849, Merelbeke Lembergsesteenweg,De Lijn,Lamstraat 28,9820,,,https://data.velopark.be/openvelopark/terms#BicycleStand,5,1,false,https://www.delijn.be/en/contact/,true,false,,https://www.openstreetmap.org/#map=18/50.98934/3.762939,50.98934,3.762939,,true,,Mon_00:00-23:59;Tue_00:00-23:59;Wed_00:00-23:59;Thu_00:00-23:59;Fri_00:00-23:59;Sat_00:00-23:59;Sun_00:00-23:59
https://data.velopark.be/data/De-Lijn_203823, Schelderode Kerk,De Lijn,Gaversesteenweg 633,9820,,,https://data.velopark.be/openvelopark/terms#BicycleStand,5,1,false,https://www.delijn.be/en/contact/,true,false,,https://www.openstreetmap.org/#map=18/50.97083/3.71446,50.97083,3.71446,,true,,Mon_00:00-23:59;Tue_00:00-23:59;Wed_00:00-23:59;Thu_00:00-23:59;Fri_00:00-23:59;Sat_00:00-23:59;Sun_00:00-23:59
https://data.velopark.be/data/De-Lijn_204089, Moerbeke-Waas Terwest,De Lijn,Terweststraat 53,9180,,,https://data.velopark.be/openvelopark/terms#BicycleStand,5,1,false,https://www.delijn.be/en/contact/,true,false,,https://www.openstreetmap.org/#map=18/51.172318/3.924744,51.172318,3.924744,,true,,Mon_00:00-23:59;Tue_00:00-23:59;Wed_00:00-23:59;Thu_00:00-23:59;Fri_00:00-23:59;Sat_00:00-23:59;Sun_00:00-23:59
https://data.velopark.be/data/De-Lijn_205085, Moerbeke-Waas Korte Damstraat,De Lijn,Hospicestraat 35,9180,,,https://data.velopark.be/openvelopark/terms#BicycleStand,5,1,false,https://www.delijn.be/en/contact/,true,false,,https://www.openstreetmap.org/#map=18/51.174706/3.946342,51.174706,3.946342,,true,,Mon_00:00-23:59;Tue_00:00-23:59;Wed_00:00-23:59;Thu_00:00-23:59;Fri_00:00-23:59;Sat_00:00-23:59;Sun_00:00-23:59
https://data.velopark.be/data/De-Lijn_209724, Eke Dorp,De Lijn,Stationsstraat 3B,9810,,,https://data.velopark.be/openvelopark/terms#BicycleStand,5,1,false,https://www.delijn.be/en/contact/,true,false,,https://www.openstreetmap.org/#map=18/50.956668/3.642333,50.956668,3.642333,,true,,Mon_00:00-23:59;Tue_00:00-23:59;Wed_00:00-23:59;Thu_00:00-23:59;Fri_00:00-23:59;Sat_00:00-23:59;Sun_00:00-23:59
https://data.velopark.be/data/De-Lijn_208731, Nazareth Dorp,De Lijn,Dorp 2,9810,,,https://data.velopark.be/openvelopark/terms#BicycleStand,5,1,false,https://www.delijn.be/en/contact/,true,false,,https://www.openstreetmap.org/#map=18/50.95974/3.597237,50.95974,3.597237,,true,,Mon_00:00-23:59;Tue_00:00-23:59;Wed_00:00-23:59;Thu_00:00-23:59;Fri_00:00-23:59;Sat_00:00-23:59;Sun_00:00-23:59
https://data.velopark.be/data/De-Lijn_209731, Nazareth Dorp,De Lijn,Dorp 41,9810,,,https://data.velopark.be/openvelopark/terms#BicycleStand,5,1,false,https://www.delijn.be/en/contact/,true,false,,https://www.openstreetmap.org/#map=18/50.959594/3.596202,50.959594,3.596202,,true,,Mon_00:00-23:59;Tue_00:00-23:59;Wed_00:00-23:59;Thu_00:00-23:59;Fri_00:00-23:59;Sat_00:00-23:59;Sun_00:00-23:59
https://data.velopark.be/data/De-Lijn_202786, Nevele Stelplaats,De Lijn,Graaf van Hoornestraat 9,9850,,,https://data.velopark.be/openvelopark/terms#BicycleStand,5,1,false,https://www.delijn.be/en/contact/,true,false,,https://www.openstreetmap.org/#map=18/51.032682/3.544116,51.032682,3.544116,,true,,Mon_00:00-23:59;Tue_00:00-23:59;Wed_00:00-23:59;Thu_00:00-23:59;Fri_00:00-23:59;Sat_00:00-23:59;Sun_00:00-23:59
https://data.velopark.be/data/De-Lijn_203785, Nevele Markt,De Lijn,Nevelemarkt 18,9850,,,https://data.velopark.be/openvelopark/terms#BicycleStand,5,1,false,https://www.delijn.be/en/contact/,true,false,,https://www.openstreetmap.org/#map=18/51.032733/3.549081,51.032733,3.549081,,true,,Mon_00:00-23:59;Tue_00:00-23:59;Wed_00:00-23:59;Thu_00:00-23:59;Fri_00:00-23:59;Sat_00:00-23:59;Sun_00:00-23:59
https://data.velopark.be/data/De-Lijn_202789, Poesele Beentjesstraat,De Lijn,Bredeweg 19,9850,,,https://data.velopark.be/openvelopark/terms#BicycleStand,5,1,false,https://www.delijn.be/en/contact/,true,false,,https://www.openstreetmap.org/#map=18/51.037893/3.516245,51.037893,3.516245,,true,,Mon_00:00-23:59;Tue_00:00-23:59;Wed_00:00-23:59;Thu_00:00-23:59;Fri_00:00-23:59;Sat_00:00-23:59;Sun_00:00-23:59
https://data.velopark.be/data/De-Lijn_207981, Meerbeke Stelplaats,De Lijn,Brusselsesteenweg,9402,,,https://data.velopark.be/openvelopark/terms#BicycleStand,5,1,false,https://www.delijn.be/en/contact/,true,false,,https://www.openstreetmap.org/#map=18/50.828867/4.037028,50.828867,4.037028,,true,,Mon_00:00-23:59;Tue_00:00-23:59;Wed_00:00-23:59;Thu_00:00-23:59;Fri_00:00-23:59;Sat_00:00-23:59;Sun_00:00-23:59
https://data.velopark.be/data/De-Lijn_204251, Sint-Gillis-Waas Sint-Helena,De Lijn,Blokstraat 17,9170,,,https://data.velopark.be/openvelopark/terms#BicycleStand,5,1,false,https://www.delijn.be/en/contact/,true,false,,https://www.openstreetmap.org/#map=18/51.222381/4.124877,51.222381,4.124877,,true,,Mon_00:00-23:59;Tue_00:00-23:59;Wed_00:00-23:59;Thu_00:00-23:59;Fri_00:00-23:59;Sat_00:00-23:59;Sun_00:00-23:59
https://data.velopark.be/data/De-Lijn_205251, Sint-Gillis-Waas Sint-Helena,De Lijn,Blokstraat 17,9170,,,https://data.velopark.be/openvelopark/terms#BicycleStand,5,1,false,https://www.delijn.be/en/contact/,true,false,,https://www.openstreetmap.org/#map=18/51.222388/4.124947,51.222388,4.124947,,true,,Mon_00:00-23:59;Tue_00:00-23:59;Wed_00:00-23:59;Thu_00:00-23:59;Fri_00:00-23:59;Sat_00:00-23:59;Sun_00:00-23:59
https://data.velopark.be/data/De-Lijn_204374, Sint-Pauwels Bagonielaan,De Lijn,Zandstraat 146,9170,,,https://data.velopark.be/openvelopark/terms#BicycleStand,5,1,false,https://www.delijn.be/en/contact/,true,false,,https://www.openstreetmap.org/#map=18/51.199126/4.082276,51.199126,4.082276,,true,,Mon_00:00-23:59;Tue_00:00-23:59;Wed_00:00-23:59;Thu_00:00-23:59;Fri_00:00-23:59;Sat_00:00-23:59;Sun_00:00-23:59
https://data.velopark.be/data/De-Lijn_206545, Vlierzele Hemelrijk,De Lijn,Oordegemstraat 3,9520,,,https://data.velopark.be/openvelopark/terms#BicycleStand,5,1,false,https://www.delijn.be/en/contact/,true,false,,https://www.openstreetmap.org/#map=18/50.932284/3.901439,50.932284,3.901439,,true,,Mon_00:00-23:59;Tue_00:00-23:59;Wed_00:00-23:59;Thu_00:00-23:59;Fri_00:00-23:59;Sat_00:00-23:59;Sun_00:00-23:59
https://data.velopark.be/data/De-Lijn_205700, Sint-Niklaas Stadskliniek,De Lijn,9100 Sint-Niklaas,9100,,,https://data.velopark.be/openvelopark/terms#BicycleStand,5,1,false,https://www.delijn.be/en/contact/,true,false,,https://www.openstreetmap.org/#map=18/51.163587/4.151849,51.163587,4.151849,,true,,Mon_00:00-23:59;Tue_00:00-23:59;Wed_00:00-23:59;Thu_00:00-23:59;Fri_00:00-23:59;Sat_00:00-23:59;Sun_00:00-23:59
https://data.velopark.be/data/De-Lijn_205714, Sint-Niklaas Uitgang Noordlaan,De Lijn,Noordlaan,9100,,,https://data.velopark.be/openvelopark/terms#BicycleStand,5,1,false,https://www.delijn.be/en/contact/,true,false,,https://www.openstreetmap.org/#map=18/51.172552/4.144374,51.172552,4.144374,,true,,Mon_00:00-23:59;Tue_00:00-23:59;Wed_00:00-23:59;Thu_00:00-23:59;Fri_00:00-23:59;Sat_00:00-23:59;Sun_00:00-23:59
https://data.velopark.be/data/De-Lijn_205103, Sint-Niklaas Atheneum/Zwembad,De Lijn,Parklaan 115,9100,,,https://data.velopark.be/openvelopark/terms#BicycleStand,5,1,false,https://www.delijn.be/en/contact/,true,false,,https://www.openstreetmap.org/#map=18/51.156458/4.15353,51.156458,4.15353,,true,,Mon_00:00-23:59;Tue_00:00-23:59;Wed_00:00-23:59;Thu_00:00-23:59;Fri_00:00-23:59;Sat_00:00-23:59;Sun_00:00-23:59
https://data.velopark.be/data/De-Lijn_204375, Kemzeke Dorp,De Lijn,Stationsstraat 18,9190,,,https://data.velopark.be/openvelopark/terms#BicycleStand,5,1,false,https://www.delijn.be/en/contact/,true,false,,https://www.openstreetmap.org/#map=18/51.206965/4.075261,51.206965,4.075261,,true,,Mon_00:00-23:59;Tue_00:00-23:59;Wed_00:00-23:59;Thu_00:00-23:59;Fri_00:00-23:59;Sat_00:00-23:59;Sun_00:00-23:59
https://data.velopark.be/data/De-Lijn_204406, Stekene Klein Sinaai,De Lijn,Brugse Heirweg 9,9190,,,https://data.velopark.be/openvelopark/terms#BicycleStand,5,1,false,https://www.delijn.be/en/contact/,true,false,,https://www.openstreetmap.org/#map=18/51.181606/3.991012,51.181606,3.991012,,true,,Mon_00:00-23:59;Tue_00:00-23:59;Wed_00:00-23:59;Thu_00:00-23:59;Fri_00:00-23:59;Sat_00:00-23:59;Sun_00:00-23:59
https://data.velopark.be/data/De-Lijn_205406, Stekene Klein Sinaai,De Lijn,Brugse Heirweg 11,9190,,,https://data.velopark.be/openvelopark/terms#BicycleStand,5,1,false,https://www.delijn.be/en/contact/,true,false,,https://www.openstreetmap.org/#map=18/51.181385/3.989981,51.181385,3.989981,,true,,Mon_00:00-23:59;Tue_00:00-23:59;Wed_00:00-23:59;Thu_00:00-23:59;Fri_00:00-23:59;Sat_00:00-23:59;Sun_00:00-23:59
https://data.velopark.be/data/De-Lijn_204391, Stekene Kerk,De Lijn,Polenlaan 14,9190,,,https://data.velopark.be/openvelopark/terms#BicycleStand,5,1,false,https://www.delijn.be/en/contact/,true,false,,https://www.openstreetmap.org/#map=18/51.206469/4.041516,51.206469,4.041516,,true,,Mon_00:00-23:59;Tue_00:00-23:59;Wed_00:00-23:59;Thu_00:00-23:59;Fri_00:00-23:59;Sat_00:00-23:59;Sun_00:00-23:59
https://data.velopark.be/data/De-Lijn_204399, Stekene Dienstencentrum Koningshei,De Lijn,Koewacht 17,9190,,,https://data.velopark.be/openvelopark/terms#BicycleStand,5,1,false,https://www.delijn.be/en/contact/,true,false,,https://www.openstreetmap.org/#map=18/51.224271/3.988966,51.224271,3.988966,,true,,Mon_00:00-23:59;Tue_00:00-23:59;Wed_00:00-23:59;Thu_00:00-23:59;Fri_00:00-23:59;Sat_00:00-23:59;Sun_00:00-23:59
https://data.velopark.be/data/De-Lijn_204654, Temse Gasthuisstraat,De Lijn,Kouterstraat 3,9140,,,https://data.velopark.be/openvelopark/terms#BicycleStand,5,1,false,https://www.delijn.be/en/contact/,true,false,,https://www.openstreetmap.org/#map=18/51.127687/4.214816,51.127687,4.214816,,true,,Mon_00:00-23:59;Tue_00:00-23:59;Wed_00:00-23:59;Thu_00:00-23:59;Fri_00:00-23:59;Sat_00:00-23:59;Sun_00:00-23:59
https://data.velopark.be/data/De-Lijn_202603, Wachtebeke Overslag,De Lijn,Overslag 18A,9185,,,https://data.velopark.be/openvelopark/terms#BicycleStand,5,1,false,https://www.delijn.be/en/contact/,true,false,,https://www.openstreetmap.org/#map=18/51.199264/3.887333,51.199264,3.887333,,true,,Mon_00:00-23:59;Tue_00:00-23:59;Wed_00:00-23:59;Thu_00:00-23:59;Fri_00:00-23:59;Sat_00:00-23:59;Sun_00:00-23:59
https://data.velopark.be/data/De-Lijn_202604, Wachtebeke Persijnplein,De Lijn,Meersstraat 1,9185,,,https://data.velopark.be/openvelopark/terms#BicycleStand,5,1,false,https://www.delijn.be/en/contact/,true,false,,https://www.openstreetmap.org/#map=18/51.16867/3.858888,51.16867,3.858888,,true,,Mon_00:00-23:59;Tue_00:00-23:59;Wed_00:00-23:59;Thu_00:00-23:59;Fri_00:00-23:59;Sat_00:00-23:59;Sun_00:00-23:59
https://data.velopark.be/data/De-Lijn_207593, Serskamp Nieuwstraat,De Lijn,Anker 48,9260,,,https://data.velopark.be/openvelopark/terms#BicycleStand,5,1,false,https://www.delijn.be/en/contact/,true,false,,https://www.openstreetmap.org/#map=18/50.992302/3.921403,50.992302,3.921403,,true,,Mon_00:00-23:59;Tue_00:00-23:59;Wed_00:00-23:59;Thu_00:00-23:59;Fri_00:00-23:59;Sat_00:00-23:59;Sun_00:00-23:59
https://data.velopark.be/data/De-Lijn_200157, Wichelen Molenkouter,De Lijn,Dreefstraat 11A,9260,,,https://data.velopark.be/openvelopark/terms#BicycleStand,5,1,false,https://www.delijn.be/en/contact/,true,false,,https://www.openstreetmap.org/#map=18/51.011942/3.968161,51.011942,3.968161,,true,,Mon_00:00-23:59;Tue_00:00-23:59;Wed_00:00-23:59;Thu_00:00-23:59;Fri_00:00-23:59;Sat_00:00-23:59;Sun_00:00-23:59
https://data.velopark.be/data/De-Lijn_202436, Zelzate Busstation perron 6,De Lijn,9060 Zelzate,9060,,,https://data.velopark.be/openvelopark/terms#BicycleStand,5,1,false,https://www.delijn.be/en/contact/,true,false,,https://www.openstreetmap.org/#map=18/51.200821/3.808132,51.200821,3.808132,,true,,Mon_00:00-23:59;Tue_00:00-23:59;Wed_00:00-23:59;Thu_00:00-23:59;Fri_00:00-23:59;Sat_00:00-23:59;Sun_00:00-23:59
https://data.velopark.be/data/De-Lijn_202588, Zelzate Busstation perron 1,De Lijn,Westkade,9060,,,https://data.velopark.be/openvelopark/terms#BicycleStand,5,1,false,https://www.delijn.be/en/contact/,true,false,,https://www.openstreetmap.org/#map=18/51.201076/3.807996,51.201076,3.807996,,true,,Mon_00:00-23:59;Tue_00:00-23:59;Wed_00:00-23:59;Thu_00:00-23:59;Fri_00:00-23:59;Sat_00:00-23:59;Sun_00:00-23:59
https://data.velopark.be/data/De-Lijn_202719, Zelzate Busstation perron 4,De Lijn,9060 Zelzate,9060,,,https://data.velopark.be/openvelopark/terms#BicycleStand,5,1,false,https://www.delijn.be/en/contact/,true,false,,https://www.openstreetmap.org/#map=18/51.200906/3.808087,51.200906,3.808087,,true,,Mon_00:00-23:59;Tue_00:00-23:59;Wed_00:00-23:59;Thu_00:00-23:59;Fri_00:00-23:59;Sat_00:00-23:59;Sun_00:00-23:59
https://data.velopark.be/data/De-Lijn_201714, Zomergem Sportcentrum,De Lijn,Den Boer,9930,,,https://data.velopark.be/openvelopark/terms#BicycleStand,5,1,false,https://www.delijn.be/en/contact/,true,false,,https://www.openstreetmap.org/#map=18/51.122627/3.561788,51.122627,3.561788,,true,,Mon_00:00-23:59;Tue_00:00-23:59;Wed_00:00-23:59;Thu_00:00-23:59;Fri_00:00-23:59;Sat_00:00-23:59;Sun_00:00-23:59
https://data.velopark.be/data/De-Lijn_201563, Zulte Standbeeld,De Lijn,Staatsbaan,9870,,,https://data.velopark.be/openvelopark/terms#BicycleStand,5,1,false,https://www.delijn.be/en/contact/,true,false,,https://www.openstreetmap.org/#map=18/50.921312/3.443072,50.921312,3.443072,,true,,Mon_00:00-23:59;Tue_00:00-23:59;Wed_00:00-23:59;Thu_00:00-23:59;Fri_00:00-23:59;Sat_00:00-23:59;Sun_00:00-23:59
https://data.velopark.be/data/De-Lijn_104422, Zwijndrecht P+R Melsele,De Lijn,9120 Beveren,9120,,,https://data.velopark.be/openvelopark/terms#BicycleStand,5,1,false,https://www.delijn.be/en/contact/,true,false,,https://www.openstreetmap.org/#map=18/51.219353/4.305232,51.219353,4.305232,,true,,Mon_00:00-23:59;Tue_00:00-23:59;Wed_00:00-23:59;Thu_00:00-23:59;Fri_00:00-23:59;Sat_00:00-23:59;Sun_00:00-23:59
https://data.velopark.be/data/De-Lijn_104424, Zwijndrecht P+R Melsele,De Lijn,9120 Beveren,9120,,,https://data.velopark.be/openvelopark/terms#BicycleStand,5,1,false,https://www.delijn.be/en/contact/,true,false,,https://www.openstreetmap.org/#map=18/51.219287/4.305329,51.219287,4.305329,,true,,Mon_00:00-23:59;Tue_00:00-23:59;Wed_00:00-23:59;Thu_00:00-23:59;Fri_00:00-23:59;Sat_00:00-23:59;Sun_00:00-23:59
https://data.velopark.be/data/Stad-Deinze_2,Sporthal Landegem,Stad Deinze,Stationstraat 17,9850,Info@deinze.be,093810500,https://data.velopark.be/openvelopark/terms#BicycleStand,35,1,false,https://www.deinze.be,true,false,Iedereen,https://www.openstreetmap.org/#map=18/51.05917411089166/3.5732871874320185,51.05917411089166,3.5732871874320185,"POLYGON ((3.5732531265873746 51.05918108622973, 3.5733610664539235 51.05915898112744, 3.5733413667593212 51.0591188901283, 3.5732322827300638 51.05914170103145, 3.5732531265873746 51.05918108622899))",true,,Mon_00:00-23:59;Tue_00:00-23:59;Wed_00:00-23:59;Thu_00:00-23:59;Fri_00:00-23:59;Sat_00:00-23:59;Sun_00:00-23:59
https://data.velopark.be/data/Stad-Deinze_3,Bibliotheek Landegem,Stad Deinze,Stationstraat 20,9850,Info@deinze.be,093810500,https://data.velopark.be/openvelopark/terms#PublicBicycleParking,20,1,false,https://www.deinze.be,true,false,Iedereen,https://www.openstreetmap.org/#map=18/51.058855473204005/3.5739340442130967,51.058855473204005,3.5739340442130967,"POLYGON ((3.5739346133153607 51.05882194075852, 3.573933487218599 51.05888829219299, 3.5739685829538614 51.058888528741505, 3.5739674447630754 51.05882216204583, 3.5739346133153607 51.058821940758406))",true,,Mon_00:00-23:59;Tue_00:00-23:59;Wed_00:00-23:59;Thu_00:00-23:59;Fri_00:00-23:59;Sat_00:00-23:59;Sun_00:00-23:59
https://data.velopark.be/data/Stad-Deinze_4,Kerk Landegem,Stad Deinze,Landegemdorp 32,9850,Info@deinze.be,093810500,https://data.velopark.be/openvelopark/terms#PublicBicycleParking,42,1,false,https://www.deinze.be,true,false,Iedereen,https://www.openstreetmap.org/#map=18/51.05708906111559/3.5732664805977317,51.05708906111559,3.5732664805977317,"POLYGON ((3.5732250251157676 51.057136059855566, 3.573351352209002 51.05709766744391, 3.5733269190908055 51.05706967463172, 3.573200555695304 51.05711020738747, 3.5732250251157676 51.05713605985551))",true,,Mon_00:00-23:59;Tue_00:00-23:59;Wed_00:00-23:59;Thu_00:00-23:59;Fri_00:00-23:59;Sat_00:00-23:59;Sun_00:00-23:59|Mon_00:00-23:59;Tue_00:00-23:59;Wed_00:00-23:59;Thu_00:00-23:59;Fri_00:00-23:59;Sat_00:00-23:59;Sun_00:00-23:59|Mon_00:00-23:59;Tue_00:00-23:59;Wed_00:00-23:59;Thu_00:00-23:59;Fri_00:00-23:59;Sat_00:00-23:59;Sun_00:00-23:59|Mon_00:00-23:59;Tue_00:00-23:59;Wed_00:00-23:59;Thu_00:00-23:59;Fri_00:00-23:59;Sat_00:00-23:59;Sun_00:00-23:59
https://data.velopark.be/data/Stad-Deinze_6,Carpoolparking Nevele,Stad Deinze,Biebuyckstraat,9850,Info@deinze.be,093810500,https://data.velopark.be/openvelopark/terms#BicycleStand,28,1,true,https://www.deinze.be,true,false,Carpoolers,https://www.openstreetmap.org/#map=18/51.056503686398116/3.528432758981652,51.056503686398116,3.528432758981652,"POLYGON ((3.528418581773696 51.056494547143615, 3.5282611716636114 51.056559546862616, 3.528291662138394 51.056584976066176, 3.52844535851353 51.056516619971376, 3.52843275898165 51.05650368639817, 3.528418581773696 51.056494547143615))",true,,Mon_00:00-23:59;Tue_00:00-23:59;Wed_00:00-23:59;Thu_00:00-23:59;Fri_00:00-23:59;Sat_00:00-23:59;Sun_00:00-23:59
https://data.velopark.be/data/Stad-Deinze_7,Kerk Poesele,Stad Deinze,Poeseledorp 1A,9850,Info@deinze.be,093810500,https://data.velopark.be/openvelopark/terms#BicycleStand,5,1,false,https://www.deinze.be,true,false,Iedereen,https://www.openstreetmap.org/#map=18/51.034012548824506/3.5162765530240954,51.034012548824506,3.5162765530240954,"POLYGON ((3.5162810382375804 51.03402758411556, 3.5163074401280827 51.034027775091175, 3.516289239318506 51.03399149023565, 3.5162710832554485 51.0339942131034, 3.5162810382375804 51.034027584115506))",true,,Mon_00:00-23:59;Tue_00:00-23:59;Wed_00:00-23:59;Thu_00:00-23:59;Fri_00:00-23:59;Sat_00:00-23:59;Sun_00:00-23:59
https://data.velopark.be/data/Stad-Deinze_8,Busstop Vierboomstraat,Stad Deinze,Graaf van hoornestraat,9850,Info@deinze.be,093810500,https://data.velopark.be/openvelopark/terms#PublicBicycleParking,8,1,true,https://www.deinze.be,true,false,Pendelaars,https://www.openstreetmap.org/#map=18/51.035905435871086/3.5377971690690644,51.035905435871086,3.5377971690690644,"POLYGON ((3.537788588126797 51.035931225439896, 3.537840256628243 51.035910659001615, 3.537822430052282 51.03589483528114, 3.5377722618699923 51.0359158879881, 3.537788588126797 51.0359312254397))",true,,Mon_00:00-23:59;Tue_00:00-23:59;Wed_00:00-23:59;Thu_00:00-23:59;Fri_00:00-23:59;Sat_00:00-23:59;Sun_00:00-23:59
https://data.velopark.be/data/Stad-Deinze_9,Busstop Stelplaats,Stad Deinze,Graaf van hoornestraat,9850,Info@deinze.be,093810500,https://data.velopark.be/openvelopark/terms#BicycleStand,17,1,true,https://www.deinze.be,true,false,Pendelaars,https://www.openstreetmap.org/#map=18/51.032690303491165/3.54403230672038,51.032690303491165,3.54403230672038,"POLYGON ((3.5439836585971896 51.03270859890915, 3.5440755509872353 51.032674040307825, 3.5440600618412983 51.032653952592966, 3.5439666608364893 51.03268850062409, 3.5439836585971896 51.032708598909096))",true,,Mon_00:00-23:59;Tue_00:00-23:59;Wed_00:00-23:59;Thu_00:00-23:59;Fri_00:00-23:59;Sat_00:00-23:59;Sun_00:00-23:59
https://data.velopark.be/data/Stad-Deinze_10,Dienstencentrum Nevele,Stad Deinze,Cyriel Buyssestraat 17,9850,Info@deinze.be,093810500,https://data.velopark.be/openvelopark/terms#BicycleStand,19,1,false,https://www.deinze.be,true,false,Iedereen,https://www.openstreetmap.org/#map=18/51.032112086056486/3.5477183169987727,51.032112086056486,3.5477183169987727,"POLYGON ((3.547691559209408 51.03210847145678, 3.547747253320357 51.0321159949377, 3.5477527585191466 51.03210318944221, 3.5476955808011232 51.03209422853325, 3.547691559209408 51.032108471456695))",true,,Mon_00:00-23:59;Tue_00:00-23:59;Wed_00:00-23:59;Thu_00:00-23:59;Fri_00:00-23:59;Sat_00:00-23:59;Sun_00:00-23:59|Mon_00:00-23:59;Tue_00:00-23:59;Wed_00:00-23:59;Thu_00:00-23:59;Fri_00:00-23:59;Sat_00:00-23:59;Sun_00:00-23:59
https://data.velopark.be/data/Stad-Deinze_11,Nevelemarkt,Stad Deinze,Nevelemarkt,9850,Info@deinze.be,093810500,https://data.velopark.be/openvelopark/terms#BicycleStand,12,1,true,https://www.deinze.be,true,false,Iedereen,https://www.openstreetmap.org/#map=18/51.03278266356165/3.549061809556245,51.03278266356165,3.549061809556245,"POLYGON ((3.5490193860067167 51.032794157430146, 3.549073439372041 51.032809280028204, 3.549088850340351 51.03279083499706, 3.549034067630685 51.03277428023932, 3.5490193860067167 51.03279415743003))",true,,Mon_00:00-23:59;Tue_00:00-23:59;Wed_00:00-23:59;Thu_00:00-23:59;Fri_00:00-23:59;Sat_00:00-23:59;Sun_00:00-23:59
https://data.velopark.be/data/Stad-Deinze_12,Busstop Nevelemarkt,Stad Deinze,Nevelemarkt,9850,Info@deinze.be,093810500,https://data.velopark.be/openvelopark/terms#BicycleStand,15,1,false,https://www.deinze.be,true,false,Iedereen,https://www.openstreetmap.org/#map=18/51.03319022731793/3.549558372854373,51.03319022731793,3.549558372854373,"POLYGON ((3.5495236657896534 51.0332067640519, 3.5495961979119484 51.033200608454564, 3.5495934217329017 51.033186793923136, 3.549520872999696 51.03319390079872, 3.5495236657896534 51.0332067640517))",true,,Mon_00:00-23:59;Tue_00:00-23:59;Wed_00:00-23:59;Thu_00:00-23:59;Fri_00:00-23:59;Sat_00:00-23:59;Sun_00:00-23:59
https://data.velopark.be/data/Stad-Deinze_13,Camille Van der Cruyssenstraat,Stad Deinze,Camille Van der Cruyssenstraat 43,9850,Info@deinze.be,093810500,https://data.velopark.be/openvelopark/terms#BicycleStand,16,1,true,https://www.deinze.be,true,false,Iedereen,https://www.openstreetmap.org/#map=18/51.03596359701555/3.550221552350183,51.03596359701555,3.550221552350183,"POLYGON ((3.550183456020897 51.03598942197249, 3.5502173613584165 51.035992035936374, 3.55022506476036 51.03593976273632, 3.5501964400809563 51.0359371854496, 3.550183456020897 51.0359894219724))",true,,Mon_00:00-23:59;Tue_00:00-23:59;Wed_00:00-23:59;Thu_00:00-23:59;Fri_00:00-23:59;Sat_00:00-23:59;Sun_00:00-23:59
https://data.velopark.be/data/Stad-Deinze_14,Sporthal Oostbroek,Stad Deinze,Zeistraat 41,9850,Info@deinze.be,093810500,https://data.velopark.be/openvelopark/terms#BicycleStand,156,1,false,https://www.deinze.be,true,false,Iedereen,https://www.openstreetmap.org/#map=18/51.033791107177905/3.5529628669292292,51.033791107177905,3.5529628669292292,"POLYGON ((3.552856760337247 51.03338823010387, 3.5528700236266237 51.033406398429435, 3.5529913629496828 51.033370133978536, 3.55298116664068 51.03334913271118, 3.552856760337247 51.03338823010381))",true,,Mon_00:00-23:59;Tue_00:00-23:59;Wed_00:00-23:59;Thu_00:00-23:59;Fri_00:00-23:59;Sat_00:00-23:59;Sun_00:00-23:59|Mon_00:00-23:59;Tue_00:00-23:59;Wed_00:00-23:59;Thu_00:00-23:59;Fri_00:00-23:59;Sat_00:00-23:59;Sun_00:00-23:59|Mon_00:00-23:59;Tue_00:00-23:59;Wed_00:00-23:59;Thu_00:00-23:59;Fri_00:00-23:59;Sat_00:00-23:59;Sun_00:00-23:59
https://data.velopark.be/data/Stad-Deinze_15,Busstop Damstraat - Vosselare,Stad Deinze,Damstraat 1,9850,Info@deinze.be,093810500,https://data.velopark.be/openvelopark/terms#PublicBicycleParking,16,1,true,https://www.deinze.be,true,false,Iedereen,https://www.openstreetmap.org/#map=18/51.02927256222981/3.5577621456818176,51.02927256222981,3.5577621456818176,"POLYGON ((3.557718523336881 51.029281935143814, 3.557752335747473 51.02928966008665, 3.5577733368659152 51.02925305695925, 3.5577411907107703 51.02924712735637, 3.557718523336881 51.029281935143786))",true,,Mon_00:00-23:59;Tue_00:00-23:59;Wed_00:00-23:59;Thu_00:00-23:59;Fri_00:00-23:59;Sat_00:00-23:59;Sun_00:00-23:59|Mon_00:00-23:59;Tue_00:00-23:59;Wed_00:00-23:59;Thu_00:00-23:59;Fri_00:00-23:59;Sat_00:00-23:59;Sun_00:00-23:59
https://data.velopark.be/data/Stad-Deinze_16,Kerk Vosselare,Stad Deinze,Vosselaredorp 47A,9850,Info@deinze.be,093810500,https://data.velopark.be/openvelopark/terms#BicycleStand,12,1,false,https://www.deinze.be,true,false,Iedereen,https://www.openstreetmap.org/#map=18/51.02657320551242/3.5550213505328996,51.02657320551242,3.5550213505328996,"POLYGON ((3.5549881461092188 51.02659827458845, 3.555023851350445 51.026594596647726, 3.555018925585042 51.026552463321536, 3.5549787074218577 51.026555396546854, 3.5549881461092188 51.026598274588395))",true,,Mon_00:00-23:59;Tue_00:00-23:59;Wed_00:00-23:59;Thu_00:00-23:59;Fri_00:00-23:59;Sat_00:00-23:59;Sun_00:00-23:59|Mon_00:00-23:59;Tue_00:00-23:59;Wed_00:00-23:59;Thu_00:00-23:59;Fri_00:00-23:59;Sat_00:00-23:59;Sun_00:00-23:59
https://data.velopark.be/data/Stad-Deinze_17,Kongoplein,Stad Deinze,Kongoplein,9800,Info@deinze.be,093810500,https://data.velopark.be/openvelopark/terms#BicycleStand,8,1,false,https://www.deinze.be,true,false,Iedereen,https://www.openstreetmap.org/#map=18/50.98747403921004/3.5237744250542593,50.98747403921004,3.5237744250542593,"POLYGON ((3.5237582364938858 50.987455410501155, 3.523795155547505 50.98749789444548, 3.5238245178869287 50.98748918567253, 3.523792330178598 50.98744554642738, 3.5237582364938858 50.98745541050101))",true,,Mon_00:00-23:59;Tue_00:00-23:59;Wed_00:00-23:59;Thu_00:00-23:59;Fri_00:00-23:59;Sat_00:00-23:59;Sun_00:00-23:59
https://data.velopark.be/data/Stad-Deinze_18,Markt,Stad Deinze,Markt,9800,Info@deinze.be,093810500,https://data.velopark.be/openvelopark/terms#PublicBicycleParking,24,1,false,https://www.deinze.be,true,false,Iedereen,https://www.openstreetmap.org/#map=18/50.98606406357388/3.525246117781442,50.98606406357388,3.525246117781442,"POLYGON ((3.5252026233218174 50.98613854658967, 3.525355400700469 50.98602487689578, 3.525318000273407 50.9860091484843, 3.525169943359508 50.98612225732131, 3.5252026233218174 50.98613854658956))",true,,Mon_00:00-23:59;Tue_00:00-23:59;Wed_00:00-23:59;Thu_00:00-23:59;Fri_00:00-23:59;Sat_00:00-23:59;Sun_00:00-23:59
https://data.velopark.be/data/Stad-Deinze_19,Elfdorpen,Stad Deinze,Ghesquièrestraat 15,9800,Info@deinze.be,093810500,https://data.velopark.be/openvelopark/terms#BicycleStand,77,1,false,https://www.deinze.be,true,false,Bezoekers,https://www.openstreetmap.org/#map=18/50.98492436335329/3.530173097697443,50.98492436335329,3.530173097697443,"POLYGON ((3.530167901391141 50.984951453056794, 3.5302146835395365 50.984916702918355, 3.53019506227025 50.9849076436592, 3.5301501746245445 50.98494181265181, 3.530167901391141 50.984951453056624))",true,,Mon_00:00-23:59;Tue_00:00-23:59;Wed_00:00-23:59;Thu_00:00-23:59;Fri_00:00-23:59;Sat_00:00-23:59;Sun_00:00-23:59|Mon_00:00-23:59;Tue_00:00-23:59;Wed_00:00-23:59;Thu_00:00-23:59;Fri_00:00-23:59;Sat_00:00-23:59;Sun_00:00-23:59|Mon_00:00-23:59;Tue_00:00-23:59;Wed_00:00-23:59;Thu_00:00-23:59;Fri_00:00-23:59;Sat_00:00-23:59;Sun_00:00-23:59|Mon_00:00-23:59;Tue_00:00-23:59;Wed_00:00-23:59;Thu_00:00-23:59;Fri_00:00-23:59;Sat_00:00-23:59;Sun_00:00-23:59|Mon_00:00-23:59;Tue_00:00-23:59;Wed_00:00-23:59;Thu_00:00-23:59;Fri_00:00-23:59;Sat_00:00-23:59;Sun_00:00-23:59
https://data.velopark.be/data/Stad-Deinze_20,Muziekacademie Kade,Stad Deinze,Kalkhofstraat 25,9800,Info@deinze.be,093810500,https://data.velopark.be/openvelopark/terms#PublicBicycleParking,44,1,true,https://www.deinze.be,true,false,Iedereen,https://www.openstreetmap.org/#map=18/50.9838687854882/3.5311834798825035,50.9838687854882,3.5311834798825035,"POLYGON ((3.5310429799128706 50.98381950732792, 3.531317091720583 50.9839156474919, 3.531340207272732 50.983887269519386, 3.5310615234188294 50.98379395111482, 3.5310429799128706 50.983819507327865))",true,,Mon_00:00-23:59;Tue_00:00-23:59;Wed_00:00-23:59;Thu_00:00-23:59;Fri_00:00-23:59;Sat_00:00-23:59;Sun_00:00-23:59|Mon_00:00-23:59;Tue_00:00-23:59;Wed_00:00-23:59;Thu_00:00-23:59;Fri_00:00-23:59;Sat_00:00-23:59;Sun_00:00-23:59
https://data.velopark.be/data/Stad-Deinze_21,Leiedam,Stad Deinze,Leiedam,9800,Info@deinze.be,093810500,https://data.velopark.be/openvelopark/terms#PublicBicycleParking,18,1,false,https://www.deinze.be,true,false,Iedereen,https://www.openstreetmap.org/#map=18/50.98328382358778/3.5300661577604244,50.98328382358778,3.5300661577604244,"POLYGON ((3.530034990468856 50.98326164008958, 3.5300351775672656 50.98330386041147, 3.5300662711018074 50.983303487300816, 3.530066041452625 50.98326364521063, 3.530034990468856 50.983261640089495))",true,,Mon_00:00-23:59;Tue_00:00-23:59;Wed_00:00-23:59;Thu_00:00-23:59;Fri_00:00-23:59;Sat_00:00-23:59;Sun_00:00-23:59|Mon_00:00-23:59;Tue_00:00-23:59;Wed_00:00-23:59;Thu_00:00-23:59;Fri_00:00-23:59;Sat_00:00-23:59;Sun_00:00-23:59
https://data.velopark.be/data/Stad-Deinze_22,Emiel Clausplein,Stad Deinze,Emiel Clausplein,9800,Info@deinze.be,093810500,https://data.velopark.be/openvelopark/terms#PublicBicycleParking,40,1,true,https://www.deinze.be,true,false,Iedereen,https://www.openstreetmap.org/#map=18/50.98346372661686/3.52744056430946,50.98346372661686,3.52744056430946,"POLYGON ((3.5273495583141874 50.98345595050216, 3.5275546065588994 50.98347347098843, 3.527564804011369 50.98343013558477, 3.527356962223744 50.9834108112469, 3.5273495583141874 50.983455950502105))",true,,Mon_00:00-23:59;Tue_00:00-23:59;Wed_00:00-23:59;Thu_00:00-23:59;Fri_00:00-23:59;Sat_00:00-23:59;Sun_00:00-23:59
https://data.velopark.be/data/Stad-Deinze_23,Sint-Poppoplein,Stad Deinze,Sint-Poppoplein,9800,Info@deinze.be,093810500,https://data.velopark.be/openvelopark/terms#PublicBicycleParking,40,1,false,https://www.deinze.be,true,false,Iedereen,https://www.openstreetmap.org/#map=18/50.983175581391265/3.527875364247654,50.983175581391265,3.527875364247654,"POLYGON ((3.5279451123318917 50.98318251162877, 3.527951200709909 50.98315817512571, 3.5278148059922243 50.98314709210149, 3.5278097020850643 50.983169057095154, 3.5279451123318917 50.983182511628684))",true,,Mon_00:00-23:59;Tue_00:00-23:59;Wed_00:00-23:59;Thu_00:00-23:59;Fri_00:00-23:59;Sat_00:00-23:59;Sun_00:00-23:59|Mon_00:00-23:59;Tue_00:00-23:59;Wed_00:00-23:59;Thu_00:00-23:59;Fri_00:00-23:59;Sat_00:00-23:59;Sun_00:00-23:59|Mon_00:00-23:59;Tue_00:00-23:59;Wed_00:00-23:59;Thu_00:00-23:59;Fri_00:00-23:59;Sat_00:00-23:59;Sun_00:00-23:59
https://data.velopark.be/data/Stad-Deinze_24,Dienstencentrum Deinze,Stad Deinze,Brielstraat 2,9800,Info@deinze.be,093810500,https://data.velopark.be/openvelopark/terms#PublicBicycleParking,114,1,false,https://www.deinze.be,true,false,Iedereen,https://www.openstreetmap.org/#map=18/50.9825704300691/3.5265212801404995,50.9825704300691,3.5265212801404995,"POLYGON ((3.5264705880103095 50.98255152968051, 3.5265697772416624 50.98258851201376, 3.5265947360968184 50.98256252666954, 3.5264945516316173 50.98252851040661, 3.5264705880103095 50.98255152968051))",true,,Mon_00:00-23:59;Tue_00:00-23:59;Wed_00:00-23:59;Thu_00:00-23:59;Fri_00:00-23:59;Sat_00:00-23:59;Sun_00:00-23:59|Mon_00:00-23:59;Tue_00:00-23:59;Wed_00:00-23:59;Thu_00:00-23:59;Fri_00:00-23:59;Sat_00:00-23:59;Sun_00:00-23:59|Mon_00:00-23:59;Tue_00:00-23:59;Wed_00:00-23:59;Thu_00:00-23:59;Fri_00:00-23:59;Sat_00:00-23:59;Sun_00:00-23:59
https://data.velopark.be/data/Stad-Deinze_25,Leietheater,Stad Deinze,Brielstraat 8,9800,Info@deinze.be,093810500,https://data.velopark.be/openvelopark/terms#PublicBicycleParking,42,1,false,https://www.deinze.be,true,false,Bezoekers,https://www.openstreetmap.org/#map=18/50.981716685018796/3.5252069428265753,50.981716685018796,3.5252069428265753,"POLYGON ((3.5250969666772867 50.981722881999445, 3.525359106896238 50.98170811064384, 3.525356773019498 50.98168074074147, 3.525252064759935 50.98168891002112, 3.5252495705751725 50.98167045848322, 3.525094001188441 50.98167826316677, 3.5250969666772867 50.98172288199942))",true,,Mon_00:00-23:59;Tue_00:00-23:59;Wed_00:00-23:59;Thu_00:00-23:59;Fri_00:00-23:59;Sat_00:00-23:59;Sun_00:00-23:59
https://data.velopark.be/data/Stad-Deinze_26,Mudel,Stad Deinze,Lucien Matthyslaan 3,9800,Info@deinze.be,093810500,https://data.velopark.be/openvelopark/terms#BicycleStand,9,1,false,https://www.deinze.be,true,false,Bezoekers,https://www.openstreetmap.org/#map=18/50.9814654836909/3.52610568154839,50.9814654836909,3.52610568154839,"POLYGON ((3.526106122168783 50.98149760803648, 3.52613156332042 50.98149719551287, 3.526127921998492 50.98143770601368, 3.526105306483396 50.98143813876288, 3.526106122168783 50.98149760803631))",true,,Mon_00:00-23:59;Tue_00:00-23:59;Wed_00:00-23:59;Thu_00:00-23:59;Fri_00:00-23:59;Sat_00:00-23:59;Sun_00:00-23:59
https://data.velopark.be/data/Stad-Deinze_27,Het Groot verzet,Stad Deinze,Brielstraat 2C,9800,Info@deinze.be,093810500,https://data.velopark.be/openvelopark/terms#PublicBicycleParking,22,1,false,https://www.deinze.be,true,false,Bezoekers,https://www.openstreetmap.org/#map=18/50.98189920838769/3.5262488326302552,50.98189920838769,3.5262488326302552,"POLYGON ((3.526190328258652 50.98189661575077, 3.526273621418819 50.98192694360006, 3.526294631046297 50.981911038833914, 3.526199928582271 50.98188657568187, 3.526190328258652 50.98189661575074))",true,,Mon_00:00-23:59;Tue_00:00-23:59;Wed_00:00-23:59;Thu_00:00-23:59;Fri_00:00-23:59;Sat_00:00-23:59;Sun_00:00-23:59|Mon_00:00-23:59;Tue_00:00-23:59;Wed_00:00-23:59;Thu_00:00-23:59;Fri_00:00-23:59;Sat_00:00-23:59;Sun_00:00-23:59
https://data.velopark.be/data/Stad-Deinze_28,Gentstraat,Stad Deinze,Gentstraat 43,9800,Info@deinze.be,093810500,https://data.velopark.be/openvelopark/terms#PublicBicycleParking,14,1,false,https://www.deinze.be,true,false,Iedereen,https://www.openstreetmap.org/#map=18/50.97989654918399/3.53355454505218,50.97989654918399,3.53355454505218,"POLYGON ((3.533430163122602 50.979898996561275, 3.533642167647266 50.979927140397535, 3.533652343811226 50.97990580576831, 3.533554545052184 50.979896549183934, 3.5334365296770067 50.97988001345203, 3.533430163122602 50.979898996561104))",true,,Mon_00:00-23:59;Tue_00:00-23:59;Wed_00:00-23:59;Thu_00:00-23:59;Fri_00:00-23:59;Sat_00:00-23:59;Sun_00:00-23:59
https://data.velopark.be/data/Stad-Deinze_29,Tolpoortstraat,Stad Deinze,Tolpoortstraat,9800,Info@deinze.be,093810500,https://data.velopark.be/openvelopark/terms#PublicBicycleParking,46,1,false,https://www.deinze.be,true,false,Iedereen,https://www.openstreetmap.org/#map=18/50.98196073748048/3.528578510138535,50.98196073748048,3.528578510138535,"POLYGON ((3.528551487587329 50.981994968675394, 3.5286418871467005 50.98195470303381, 3.5286195461430836 50.98193979666911, 3.5285358855253057 50.98198248892908, 3.528551487587329 50.98199496867531))",true,,Mon_00:00-23:59;Tue_00:00-23:59;Wed_00:00-23:59;Thu_00:00-23:59;Fri_00:00-23:59;Sat_00:00-23:59;Sun_00:00-23:59|Mon_00:00-23:59;Tue_00:00-23:59;Wed_00:00-23:59;Thu_00:00-23:59;Fri_00:00-23:59;Sat_00:00-23:59;Sun_00:00-23:59|Mon_00:00-23:59;Tue_00:00-23:59;Wed_00:00-23:59;Thu_00:00-23:59;Fri_00:00-23:59;Sat_00:00-23:59;Sun_00:00-23:59
https://data.velopark.be/data/Stad-Deinze_30,Kortrijkstraat,Stad Deinze,Kortrijkstraat 10,9800,Info@deinze.be,093810500,https://data.velopark.be/openvelopark/terms#PublicBicycleParking,34,1,false,https://www.deinze.be,true,false,Iedereen,https://www.openstreetmap.org/#map=18/50.97880845702417/3.53010732380087,50.97880845702417,3.53010732380087,"POLYGON ((3.5300878485633436 50.97879737722204, 3.5301270115504297 50.97881965771944, 3.5301565267050496 50.97880202896053, 3.5301108028991184 50.978777917826335, 3.5300878485633436 50.97879737722201))",true,,Mon_00:00-23:59;Tue_00:00-23:59;Wed_00:00-23:59;Thu_00:00-23:59;Fri_00:00-23:59;Sat_00:00-23:59;Sun_00:00-23:59|Mon_00:00-23:59;Tue_00:00-23:59;Wed_00:00-23:59;Thu_00:00-23:59;Fri_00:00-23:59;Sat_00:00-23:59;Sun_00:00-23:59
https://data.velopark.be/data/Stad-Deinze_32,Driespoort,Stad Deinze,Gaversesteenweg 48,9800,Info@deinze.be,093810500,https://data.velopark.be/openvelopark/terms#PublicBicycleParking,83,1,false,https://www.deinze.be,true,false,Iedereen,https://www.openstreetmap.org/#map=18/50.97606353045887/3.535325777930998,50.97606353045887,3.535325777930998,"POLYGON ((3.535308350454351 50.976115639756756, 3.5353809798607334 50.976035521567155, 3.5353574376012493 50.97602465145911, 3.5352881097877797 50.97610978794319, 3.535308350454351 50.97611563975602))",true,,Mon_00:00-23:59;Tue_00:00-23:59;Wed_00:00-23:59;Thu_00:00-23:59;Fri_00:00-23:59;Sat_00:00-23:59;Sun_00:00-23:59|Mon_00:00-23:59;Tue_00:00-23:59;Wed_00:00-23:59;Thu_00:00-23:59;Fri_00:00-23:59;Sat_00:00-23:59;Sun_00:00-23:59|Mon_00:00-23:59;Tue_00:00-23:59;Wed_00:00-23:59;Thu_00:00-23:59;Fri_00:00-23:59;Sat_00:00-23:59;Sun_00:00-23:59
https://data.velopark.be/data/Stad-Deinze_33,Oostkouterpark,Stad Deinze,Kastanjelaan,9800,Info@deinze.be,093810500,https://data.velopark.be/openvelopark/terms#PublicBicycleParking,16,1,false,https://www.deinze.be,true,false,Iedereen,https://www.openstreetmap.org/#map=18/50.97311051559154/3.530900674845684,50.97311051559154,3.530900674845684,"POLYGON ((3.53092464364112 50.973147590794355, 3.530946420228776 50.9731306203081, 3.530858952258012 50.973092178829575, 3.5308348263766742 50.973114127512815, 3.53092464364112 50.973147590794355))",true,,Mon_00:00-23:59;Tue_00:00-23:59;Wed_00:00-23:59;Thu_00:00-23:59;Fri_00:00-23:59;Sat_00:00-23:59;Sun_00:00-23:59|Mon_00:00-23:59;Tue_00:00-23:59;Wed_00:00-23:59;Thu_00:00-23:59;Fri_00:00-23:59;Sat_00:00-23:59;Sun_00:00-23:59
https://data.velopark.be/data/Stad-Deinze_34,Palaestra,Stad Deinze,Kastanjelaan 35,9800,Info@deinze.be,093810500,https://data.velopark.be/openvelopark/terms#PublicBicycleParking,72,1,true,https://www.deinze.be,true,false,Iedereen,https://www.openstreetmap.org/#map=18/50.97072932887124/3.529652764644894,50.97072932887124,3.529652764644894,"POLYGON ((3.5293416848423065 50.97084934233456, 3.5296689074506173 50.9707517768947, 3.5296369290111707 50.97070730797492, 3.529312968955343 50.97081203222882, 3.5293416848423065 50.97084934233399))",true,,Mon_00:00-23:59;Tue_00:00-23:59;Wed_00:00-23:59;Thu_00:00-23:59;Fri_00:00-23:59;Sat_00:00-23:59;Sun_00:00-23:59
https://data.velopark.be/data/De-Krook_De-Krook,De Krook,De Krook,Miriam Makebaplein 1,9000,fietsendepot.defietsambassade@stad.gent,092667068,https://data.velopark.be/openvelopark/terms#PublicBicycleParking,700,2,,https://fietsambassade.gent.be/nl/fiets-parkeren/fietsenparkings,true,,,https://www.openstreetmap.org/#map=18/51.04884071768643/3.7289220560342073,51.04884071768643,3.7289220560342073,"POLYGON ((3.728936933912337 51.04883903149505, 3.728631162084639 51.048877813881234, 3.728657984174788 51.04909027333352, 3.729036175645888 51.04905823585949, 3.728936933912337 51.04883903149499))",true,,Mon_00:00-23:59;Tue_00:00-23:59;Wed_00:00-23:59;Thu_00:00-23:59;Fri_00:00-23:59;Sat_00:00-23:59;Sun_00:00-23:59
https://data.velopark.be/data/De-Fietsambassade-Gent_Vooruit,Vooruit,De Fietsambassade Gent,Sint Pietersnieuwstraat 116,9000,fietsendepot.defietsambassade@stad.gent,09667068,https://data.velopark.be/openvelopark/terms#PublicBicycleParking,400,2,,https://fietsambassade.gent.be/nl/fiets-parkeren/fietsenparkings,true,,,https://www.openstreetmap.org/#map=18/51.04745970638476/3.727316879667341,51.04745970638476,3.727316879667341,"POLYGON ((3.7273176130838688 51.04747572567743, 3.7273109075613315 51.04740490349957, 3.727510732132941 51.04739900164654, 3.727512073237449 51.04746729447146, 3.7273176130838688 51.0474757256774))",true,,Mon_00:00-23:59;Tue_00:00-23:59;Wed_00:00-23:59;Thu_00:00-23:59;Fri_00:00-23:59;Sat_00:00-23:59;Sun_00:00-23:59
https://data.velopark.be/data/De-Lijn_203535, Overmere Klappeldonk,De Lijn,Dendermondse Steenweg 75,9290,,,https://data.velopark.be/openvelopark/terms#BicycleStand,5,1,false,https://www.delijn.be/en/contact/,true,false,,https://www.openstreetmap.org/#map=18/51.050841/3.975184,51.050841,3.975184,,true,,Mon_00:00-23:59;Tue_00:00-23:59;Wed_00:00-23:59;Thu_00:00-23:59;Fri_00:00-23:59;Sat_00:00-23:59;Sun_00:00-23:59
https://data.velopark.be/data/De-Lijn_204293, Beveren-Waas Viergemeet,De Lijn,Kloosterstraat,9120,,,https://data.velopark.be/openvelopark/terms#BicycleStand,5,1,false,https://www.delijn.be/en/contact/,true,false,,https://www.openstreetmap.org/#map=18/51.215357/4.262506,51.215357,4.262506,,true,,Mon_00:00-23:59;Tue_00:00-23:59;Wed_00:00-23:59;Thu_00:00-23:59;Fri_00:00-23:59;Sat_00:00-23:59;Sun_00:00-23:59
https://data.velopark.be/data/De-Lijn_204294, Beveren-Waas Gravendreef,De Lijn,9120 Beveren,9120,,,https://data.velopark.be/openvelopark/terms#BicycleStand,5,1,false,https://www.delijn.be/en/contact/,true,false,,https://www.openstreetmap.org/#map=18/51.213589/4.259393,51.213589,4.259393,,true,,Mon_00:00-23:59;Tue_00:00-23:59;Wed_00:00-23:59;Thu_00:00-23:59;Fri_00:00-23:59;Sat_00:00-23:59;Sun_00:00-23:59
https://data.velopark.be/data/De-Lijn_204299, Beveren-Waas Grote Heidestraat,De Lijn,Gentseweg 231,9120,,,https://data.velopark.be/openvelopark/terms#BicycleStand,5,1,false,https://www.delijn.be/en/contact/,true,false,,https://www.openstreetmap.org/#map=18/51.200099/4.229131,51.200099,4.229131,,true,,Mon_00:00-23:59;Tue_00:00-23:59;Wed_00:00-23:59;Thu_00:00-23:59;Fri_00:00-23:59;Sat_00:00-23:59;Sun_00:00-23:59
https://data.velopark.be/data/De-Lijn_205293, Beveren-Waas Viergemeet,De Lijn,Kloosterstraat,9120,,,https://data.velopark.be/openvelopark/terms#BicycleStand,5,1,false,https://www.delijn.be/en/contact/,true,false,,https://www.openstreetmap.org/#map=18/51.215268/4.26255,51.215268,4.26255,,true,,Mon_00:00-23:59;Tue_00:00-23:59;Wed_00:00-23:59;Thu_00:00-23:59;Fri_00:00-23:59;Sat_00:00-23:59;Sun_00:00-23:59
https://data.velopark.be/data/De-Lijn_204030, Kieldrecht Sportpleinstraat,De Lijn,Kouterstraat 14D,9130,,,https://data.velopark.be/openvelopark/terms#BicycleStand,5,1,false,https://www.delijn.be/en/contact/,true,false,,https://www.openstreetmap.org/#map=18/51.293724/4.171216,51.293724,4.171216,,true,,Mon_00:00-23:59;Tue_00:00-23:59;Wed_00:00-23:59;Thu_00:00-23:59;Fri_00:00-23:59;Sat_00:00-23:59;Sun_00:00-23:59
https://data.velopark.be/data/De-Lijn_204290, Melsele Spoorweglaan,De Lijn,Grote Baan 195,9120,,,https://data.velopark.be/openvelopark/terms#BicycleStand,5,1,false,https://www.delijn.be/en/contact/,true,false,,https://www.openstreetmap.org/#map=18/51.220061/4.282592,51.220061,4.282592,,true,,Mon_00:00-23:59;Tue_00:00-23:59;Wed_00:00-23:59;Thu_00:00-23:59;Fri_00:00-23:59;Sat_00:00-23:59;Sun_00:00-23:59
https://data.velopark.be/data/De-Lijn_204040, Verrebroek Dorp,De Lijn,Verheyenplein 1,9130,,,https://data.velopark.be/openvelopark/terms#BicycleStand,5,1,false,https://www.delijn.be/en/contact/,true,false,,https://www.openstreetmap.org/#map=18/51.25543/4.188826,51.25543,4.188826,,true,,Mon_00:00-23:59;Tue_00:00-23:59;Wed_00:00-23:59;Thu_00:00-23:59;Fri_00:00-23:59;Sat_00:00-23:59;Sun_00:00-23:59
https://data.velopark.be/data/De-Lijn_208001, Nederbrakel Markt,De Lijn,Neerstraat 20,9660,,,https://data.velopark.be/openvelopark/terms#BicycleStand,5,1,false,https://www.delijn.be/en/contact/,true,false,,https://www.openstreetmap.org/#map=18/50.803636/3.765309,50.803636,3.765309,,true,,Mon_00:00-23:59;Tue_00:00-23:59;Wed_00:00-23:59;Thu_00:00-23:59;Fri_00:00-23:59;Sat_00:00-23:59;Sun_00:00-23:59
https://data.velopark.be/data/De-Lijn_209952, De Pinte Groenpark,De Lijn,Groenstraat 18,9840,,,https://data.velopark.be/openvelopark/terms#BicycleStand,5,1,false,https://www.delijn.be/en/contact/,true,false,,https://www.openstreetmap.org/#map=18/50.992604/3.646201,50.992604,3.646201,,true,,Mon_00:00-23:59;Tue_00:00-23:59;Wed_00:00-23:59;Thu_00:00-23:59;Fri_00:00-23:59;Sat_00:00-23:59;Sun_00:00-23:59
https://data.velopark.be/data/De-Lijn_206885, Sint-Gillis-Bij-Dendermonde Halte Sint-Gillis,De Lijn,Buisstraat 5,9200,,,https://data.velopark.be/openvelopark/terms#BicycleStand,5,1,false,https://www.delijn.be/en/contact/,true,false,,https://www.openstreetmap.org/#map=18/51.021559/4.118242,51.021559,4.118242,,true,,Mon_00:00-23:59;Tue_00:00-23:59;Wed_00:00-23:59;Thu_00:00-23:59;Fri_00:00-23:59;Sat_00:00-23:59;Sun_00:00-23:59
https://data.velopark.be/data/De-Lijn_202243, Destelbergen Burgemeester Libbrechtstraat,De Lijn,Kerkstraat 30,9070,,,https://data.velopark.be/openvelopark/terms#BicycleStand,5,1,false,https://www.delijn.be/en/contact/,true,false,,https://www.openstreetmap.org/#map=18/51.057652/3.798351,51.057652,3.798351,,true,,Mon_00:00-23:59;Tue_00:00-23:59;Wed_00:00-23:59;Thu_00:00-23:59;Fri_00:00-23:59;Sat_00:00-23:59;Sun_00:00-23:59
https://data.velopark.be/data/De-Lijn_202462, Heusden Tramstraat,De Lijn,Meersstraat 11,9070,,,https://data.velopark.be/openvelopark/terms#BicycleStand,5,1,false,https://www.delijn.be/en/contact/,true,false,,https://www.openstreetmap.org/#map=18/51.033169/3.803008,51.033169,3.803008,,true,,Mon_00:00-23:59;Tue_00:00-23:59;Wed_00:00-23:59;Thu_00:00-23:59;Fri_00:00-23:59;Sat_00:00-23:59;Sun_00:00-23:59
https://data.velopark.be/data/De-Lijn_210008, Evergem Brielken,De Lijn,Brielken 49,9940,,,https://data.velopark.be/openvelopark/terms#BicycleStand,5,1,false,https://www.delijn.be/en/contact/,true,false,,https://www.openstreetmap.org/#map=18/51.110497/3.699168,51.110497,3.699168,,true,,Mon_00:00-23:59;Tue_00:00-23:59;Wed_00:00-23:59;Thu_00:00-23:59;Fri_00:00-23:59;Sat_00:00-23:59;Sun_00:00-23:59
https://data.velopark.be/data/De-Lijn_200001, Evergem Brielken,De Lijn,Christoffelweg,9940,,,https://data.velopark.be/openvelopark/terms#BicycleStand,5,1,false,https://www.delijn.be/en/contact/,true,false,,https://www.openstreetmap.org/#map=18/51.110533/3.699448,51.110533,3.699448,,true,,Mon_00:00-23:59;Tue_00:00-23:59;Wed_00:00-23:59;Thu_00:00-23:59;Fri_00:00-23:59;Sat_00:00-23:59;Sun_00:00-23:59
https://data.velopark.be/data/De-Lijn_200002, Evergem Spoorwegstraat,De Lijn,Spoorwegstraat 46,9940,,,https://data.velopark.be/openvelopark/terms#BicycleStand,5,1,false,https://www.delijn.be/en/contact/,true,false,,https://www.openstreetmap.org/#map=18/51.107476/3.705323,51.107476,3.705323,,true,,Mon_00:00-23:59;Tue_00:00-23:59;Wed_00:00-23:59;Thu_00:00-23:59;Fri_00:00-23:59;Sat_00:00-23:59;Sun_00:00-23:59
https://data.velopark.be/data/De-Lijn_202607, Gent Arcelor Mittal,De Lijn,9042 Gent,9042,,,https://data.velopark.be/openvelopark/terms#BicycleStand,5,1,false,https://www.delijn.be/en/contact/,true,false,,https://www.openstreetmap.org/#map=18/51.18203/3.831572,51.18203,3.831572,,true,,Mon_00:00-23:59;Tue_00:00-23:59;Wed_00:00-23:59;Thu_00:00-23:59;Fri_00:00-23:59;Sat_00:00-23:59;Sun_00:00-23:59
https://data.velopark.be/data/De-Lijn_200090, Gentbrugge Moscou,De Lijn,Jozef Vervaenestraat 191,9050,,,https://data.velopark.be/openvelopark/terms#BicycleStand,5,1,false,https://www.delijn.be/en/contact/,true,false,,https://www.openstreetmap.org/#map=18/51.029453/3.751019,51.029453,3.751019,,true,,Mon_00:00-23:59;Tue_00:00-23:59;Wed_00:00-23:59;Thu_00:00-23:59;Fri_00:00-23:59;Sat_00:00-23:59;Sun_00:00-23:59
https://data.velopark.be/data/De-Lijn_200241, Sint-Amandsberg P+R Oostakker,De Lijn,Antwerpsesteenweg 755,9040,,,https://data.velopark.be/openvelopark/terms#BicycleStand,5,1,false,https://www.delijn.be/en/contact/,true,false,,https://www.openstreetmap.org/#map=18/51.074302/3.777965,51.074302,3.777965,,true,,Mon_00:00-23:59;Tue_00:00-23:59;Wed_00:00-23:59;Thu_00:00-23:59;Fri_00:00-23:59;Sat_00:00-23:59;Sun_00:00-23:59
https://data.velopark.be/data/De-Lijn_202136, Sint-Amandsberg P+R Oostakker,De Lijn,Antwerpsesteenweg 761,9040,,,https://data.velopark.be/openvelopark/terms#BicycleStand,5,1,false,https://www.delijn.be/en/contact/,true,false,,https://www.openstreetmap.org/#map=18/51.074605/3.778353,51.074605,3.778353,,true,,Mon_00:00-23:59;Tue_00:00-23:59;Wed_00:00-23:59;Thu_00:00-23:59;Fri_00:00-23:59;Sat_00:00-23:59;Sun_00:00-23:59
https://data.velopark.be/data/De-Lijn_200319, Sint-Denijs-Westrem Dorp,De Lijn,Oudeheerweg,9051,,,https://data.velopark.be/openvelopark/terms#BicycleStand,5,1,false,https://www.delijn.be/en/contact/,true,false,,https://www.openstreetmap.org/#map=18/51.020137/3.668632,51.020137,3.668632,,true,,Mon_00:00-23:59;Tue_00:00-23:59;Wed_00:00-23:59;Thu_00:00-23:59;Fri_00:00-23:59;Sat_00:00-23:59;Sun_00:00-23:59
https://data.velopark.be/data/De-Lijn_201319, Sint-Denijs-Westrem Dorp,De Lijn,Sint-Dionysiusstraat 5,9051,,,https://data.velopark.be/openvelopark/terms#BicycleStand,5,1,false,https://www.delijn.be/en/contact/,true,false,,https://www.openstreetmap.org/#map=18/51.01973/3.668752,51.01973,3.668752,,true,,Mon_00:00-23:59;Tue_00:00-23:59;Wed_00:00-23:59;Thu_00:00-23:59;Fri_00:00-23:59;Sat_00:00-23:59;Sun_00:00-23:59
https://data.velopark.be/data/De-Lijn_211082, Zwijnaarde Bibliotheek,De Lijn,Heerweg-Zuid 22,9052,,,https://data.velopark.be/openvelopark/terms#BicycleStand,5,1,false,https://www.delijn.be/en/contact/,true,false,,https://www.openstreetmap.org/#map=18/51.001781/3.712999,51.001781,3.712999,,true,,Mon_00:00-23:59;Tue_00:00-23:59;Wed_00:00-23:59;Thu_00:00-23:59;Fri_00:00-23:59;Sat_00:00-23:59;Sun_00:00-23:59
https://data.velopark.be/data/De-Lijn_210107, Zwijnaarde Bibliotheek,De Lijn,Heerweg-Zuid,9052,,,https://data.velopark.be/openvelopark/terms#BicycleStand,5,1,false,https://www.delijn.be/en/contact/,true,false,,https://www.openstreetmap.org/#map=18/51.001981/3.713093,51.001981,3.713093,,true,,Mon_00:00-23:59;Tue_00:00-23:59;Wed_00:00-23:59;Thu_00:00-23:59;Fri_00:00-23:59;Sat_00:00-23:59;Sun_00:00-23:59
https://data.velopark.be/data/De-Lijn_204128, Hamme Hooirt,De Lijn,Damstraat 137,9220,,,https://data.velopark.be/openvelopark/terms#BicycleStand,5,1,false,https://www.delijn.be/en/contact/,true,false,,https://www.openstreetmap.org/#map=18/51.086607/4.13783,51.086607,4.13783,,true,,Mon_00:00-23:59;Tue_00:00-23:59;Wed_00:00-23:59;Thu_00:00-23:59;Fri_00:00-23:59;Sat_00:00-23:59;Sun_00:00-23:59
https://data.velopark.be/data/De-Lijn_205122, Hamme Roodkruisstraat,De Lijn,Drapstraat 106B,9220,,,https://data.velopark.be/openvelopark/terms#BicycleStand,5,1,false,https://www.delijn.be/en/contact/,true,false,,https://www.openstreetmap.org/#map=18/51.100344/4.143049,51.100344,4.143049,,true,,Mon_00:00-23:59;Tue_00:00-23:59;Wed_00:00-23:59;Thu_00:00-23:59;Fri_00:00-23:59;Sat_00:00-23:59;Sun_00:00-23:59
https://data.velopark.be/data/De-Lijn_205129, Hamme Theet,De Lijn,Schollaerthof 1,9220,,,https://data.velopark.be/openvelopark/terms#BicycleStand,5,1,false,https://www.delijn.be/en/contact/,true,false,,https://www.openstreetmap.org/#map=18/51.079242/4.129703,51.079242,4.129703,,true,,Mon_00:00-23:59;Tue_00:00-23:59;Wed_00:00-23:59;Thu_00:00-23:59;Fri_00:00-23:59;Sat_00:00-23:59;Sun_00:00-23:59
https://data.velopark.be/data/De-Lijn_214004, Hamme Marktplein,De Lijn,Roodkruisstraat 10,9220,,,https://data.velopark.be/openvelopark/terms#BicycleStand,5,1,false,https://www.delijn.be/en/contact/,true,false,,https://www.openstreetmap.org/#map=18/51.100187/4.138828,51.100187,4.138828,,true,,Mon_00:00-23:59;Tue_00:00-23:59;Wed_00:00-23:59;Thu_00:00-23:59;Fri_00:00-23:59;Sat_00:00-23:59;Sun_00:00-23:59
https://data.velopark.be/data/NMBS_107,Heizijde Fietsenstalling f2,NMBS,Klein Antwerpenstraat,9280,,,https://data.velopark.be/openvelopark/terms#PublicBicycleParking,25,,,,true,,,https://www.openstreetmap.org/#map=18/50.98954153378865/4.156434591071145,50.98954153378865,4.156434591071145,,true,,Mon_00:00-23:59;Tue_00:00-23:59;Wed_00:00-23:59;Thu_00:00-23:59;Fri_00:00-23:59;Sat_00:00-23:59;Sun_00:00-23:59
https://data.velopark.be/data/NMBS_1,Aalst Fietsenstalling f1,NMBS,Majoor Charles Claserstraat 20,9300,,,https://data.velopark.be/openvelopark/terms#PublicBicycleParking,869,,true,,true,,,https://www.openstreetmap.org/#map=18/50.9430136588026/4.038369327296701,50.9430136588026,4.038369327296701,,true,,Mon_00:00-23:59;Tue_00:00-23:59;Wed_00:00-23:59;Thu_00:00-23:59;Fri_00:00-23:59;Sat_00:00-23:59;Sun_00:00-23:59
https://data.velopark.be/data/NMBS_100,Hansbeke Fietsenstalling f2,NMBS,Zandestraat 2,9850,,,https://data.velopark.be/openvelopark/terms#PublicBicycleParking,144,,true,,true,,,https://www.openstreetmap.org/#map=18/51.07299187530557/3.536388090547441,51.07299187530557,3.536388090547441,,true,,Mon_00:00-23:59;Tue_00:00-23:59;Wed_00:00-23:59;Thu_00:00-23:59;Fri_00:00-23:59;Sat_00:00-23:59;Sun_00:00-23:59
https://data.velopark.be/data/NMBS_106,Heizijde Fietsenstalling f1,NMBS,Klein Antwerpenstraat,9280,,,https://data.velopark.be/openvelopark/terms#PublicBicycleParking,85,,true,,true,,,https://www.openstreetmap.org/#map=18/50.989784181624444/4.156096248370944,50.989784181624444,4.156096248370944,,true,,Mon_00:00-23:59;Tue_00:00-23:59;Wed_00:00-23:59;Thu_00:00-23:59;Fri_00:00-23:59;Sat_00:00-23:59;Sun_00:00-23:59
https://data.velopark.be/data/NMBS_110,Herzele Fietsenstalling f1,NMBS,Stationsstraat,9550,,,https://data.velopark.be/openvelopark/terms#PublicBicycleParking,28,,true,,true,,,https://www.openstreetmap.org/#map=18/50.89734284162475/3.8806535776844266,50.89734284162475,3.8806535776844266,,true,,Mon_00:00-23:59;Tue_00:00-23:59;Wed_00:00-23:59;Thu_00:00-23:59;Fri_00:00-23:59;Sat_00:00-23:59;Sun_00:00-23:59
https://data.velopark.be/data/NMBS_111,Herzele Fietsenstalling f2,NMBS,Mergellaan 1,9550,,,https://data.velopark.be/openvelopark/terms#PublicBicycleParking,156,,true,,true,,,https://www.openstreetmap.org/#map=18/50.89708766804314/3.880778461915249,50.89708766804314,3.880778461915249,,true,,Mon_00:00-23:59;Tue_00:00-23:59;Wed_00:00-23:59;Thu_00:00-23:59;Fri_00:00-23:59;Sat_00:00-23:59;Sun_00:00-23:59
https://data.velopark.be/data/NMBS_113,Iddergem Fietsenstalling f1,NMBS,Landuitstraat,9470,,,https://data.velopark.be/openvelopark/terms#PublicBicycleParking,14,,true,,true,,,https://www.openstreetmap.org/#map=18/50.87655754639062/4.068455566856953,50.87655754639062,4.068455566856953,,true,,Mon_00:00-23:59;Tue_00:00-23:59;Wed_00:00-23:59;Thu_00:00-23:59;Fri_00:00-23:59;Sat_00:00-23:59;Sun_00:00-23:59
https://data.velopark.be/data/NMBS_112,Hillegem Fietsenstalling f1,NMBS,Perrestraat,9550,,,https://data.velopark.be/openvelopark/terms#PublicBicycleParking,27,,true,,true,,,https://www.openstreetmap.org/#map=18/50.8917047847764/3.858346681361668,50.8917047847764,3.858346681361668,,true,,Mon_00:00-23:59;Tue_00:00-23:59;Wed_00:00-23:59;Thu_00:00-23:59;Fri_00:00-23:59;Sat_00:00-23:59;Sun_00:00-23:59
https://data.velopark.be/data/NMBS_114,Idegem Fietsenstalling f1,NMBS,Bareelstraat,9506,,,https://data.velopark.be/openvelopark/terms#PublicBicycleParking,28,,,,true,,,https://www.openstreetmap.org/#map=18/50.801593017024224/3.9214522411822266,50.801593017024224,3.9214522411822266,,true,,Mon_00:00-23:59;Tue_00:00-23:59;Wed_00:00-23:59;Thu_00:00-23:59;Fri_00:00-23:59;Sat_00:00-23:59;Sun_00:00-23:59
https://data.velopark.be/data/NMBS_145,Landegem Fietsenstalling f2,NMBS,Spoorwegstraat,9850,,,https://data.velopark.be/openvelopark/terms#PublicBicycleParking,77,,,,true,,,https://www.openstreetmap.org/#map=18/51.064690629348235/3.5759514829513774,51.064690629348235,3.5759514829513774,,true,,Mon_00:00-23:59;Tue_00:00-23:59;Wed_00:00-23:59;Thu_00:00-23:59;Fri_00:00-23:59;Sat_00:00-23:59;Sun_00:00-23:59
https://data.velopark.be/data/NMBS_146,Landegem Fietsenstalling f1,NMBS,Stationsstraat 87,9850,,,https://data.velopark.be/openvelopark/terms#PublicBicycleParking,194,,true,,true,,,https://www.openstreetmap.org/#map=18/51.0645049323823/3.575879259965305,51.0645049323823,3.575879259965305,,true,,Mon_00:00-23:59;Tue_00:00-23:59;Wed_00:00-23:59;Thu_00:00-23:59;Fri_00:00-23:59;Sat_00:00-23:59;Sun_00:00-23:59
https://data.velopark.be/data/NMBS_147,Landegem Fietsenstalling f1,NMBS,Stationsstraat 89,9850,,,https://data.velopark.be/openvelopark/terms#PublicBicycleParking,194,,true,,true,,,https://www.openstreetmap.org/#map=18/51.064456159413176/3.576112215516244,51.064456159413176,3.576112215516244,,true,,Mon_00:00-23:59;Tue_00:00-23:59;Wed_00:00-23:59;Thu_00:00-23:59;Fri_00:00-23:59;Sat_00:00-23:59;Sun_00:00-23:59
https://data.velopark.be/data/NMBS_144,Kwatrecht Fietsenstalling f1,NMBS,Slagveld 5,9230,,,https://data.velopark.be/openvelopark/terms#PublicBicycleParking,28,,true,,true,,,https://www.openstreetmap.org/#map=18/50.99179158727839/3.829280305221491,50.99179158727839,3.829280305221491,,true,,Mon_00:00-23:59;Tue_00:00-23:59;Wed_00:00-23:59;Thu_00:00-23:59;Fri_00:00-23:59;Sat_00:00-23:59;Sun_00:00-23:59
https://data.velopark.be/data/NMBS_148,Landegem Fietsenstalling f3,NMBS,Stationsstraat 83,9850,,,https://data.velopark.be/openvelopark/terms#PublicBicycleParking,48,,,,true,,,https://www.openstreetmap.org/#map=18/51.06422687687596/3.5754905560788783,51.06422687687596,3.5754905560788783,,true,,Mon_00:00-23:59;Tue_00:00-23:59;Wed_00:00-23:59;Thu_00:00-23:59;Fri_00:00-23:59;Sat_00:00-23:59;Sun_00:00-23:59
https://data.velopark.be/data/NMBS_149,Landskouter Fietsenstalling f1,NMBS,Lembergestraat 26,9860,,,https://data.velopark.be/openvelopark/terms#PublicBicycleParking,6,,,,true,,,https://www.openstreetmap.org/#map=18/50.970511834390244/3.791300560164576,50.970511834390244,3.791300560164576,,true,,Mon_00:00-23:59;Tue_00:00-23:59;Wed_00:00-23:59;Thu_00:00-23:59;Fri_00:00-23:59;Sat_00:00-23:59;Sun_00:00-23:59
https://data.velopark.be/data/NMBS_15,Baasrode-Zuid Fietsenstalling f2,NMBS,Mandekensstraat,9280,,,https://data.velopark.be/openvelopark/terms#PublicBicycleParking,45,,true,,true,,,https://www.openstreetmap.org/#map=18/51.019372313454056/4.1531221468111985,51.019372313454056,4.1531221468111985,,true,,Mon_00:00-23:59;Tue_00:00-23:59;Wed_00:00-23:59;Thu_00:00-23:59;Fri_00:00-23:59;Sat_00:00-23:59;Sun_00:00-23:59
https://data.velopark.be/data/NMBS_150,Lebbeke Fietsenstalling f1,NMBS,Stationsstraat 147,9280,,,https://data.velopark.be/openvelopark/terms#PublicBicycleParking,40,,true,,true,,,https://www.openstreetmap.org/#map=18/51.0048495233624/4.1345382249101785,51.0048495233624,4.1345382249101785,,true,,Mon_00:00-23:59;Tue_00:00-23:59;Wed_00:00-23:59;Thu_00:00-23:59;Fri_00:00-23:59;Sat_00:00-23:59;Sun_00:00-23:59
https://data.velopark.be/data/NMBS_152,Lebbeke Fietsenstalling f2,NMBS,Fortstraat 1,9280,,,https://data.velopark.be/openvelopark/terms#PublicBicycleParking,140,,true,,true,,,https://www.openstreetmap.org/#map=18/51.005435512926084/4.133827806446092,51.005435512926084,4.133827806446092,,true,,Mon_00:00-23:59;Tue_00:00-23:59;Wed_00:00-23:59;Thu_00:00-23:59;Fri_00:00-23:59;Sat_00:00-23:59;Sun_00:00-23:59
https://data.velopark.be/data/NMBS_151,Lebbeke Fietsenstalling f1,NMBS,Stationsstraat 147,9280,,,https://data.velopark.be/openvelopark/terms#PublicBicycleParking,40,,true,,true,,,https://www.openstreetmap.org/#map=18/51.00477396586239/4.134638351769339,51.00477396586239,4.134638351769339,,true,,Mon_00:00-23:59;Tue_00:00-23:59;Wed_00:00-23:59;Thu_00:00-23:59;Fri_00:00-23:59;Sat_00:00-23:59;Sun_00:00-23:59
https://data.velopark.be/data/NMBS_153,Lede Fietsenstalling f1,NMBS,Stationsplein 1,9340,,,https://data.velopark.be/openvelopark/terms#PublicBicycleParking,168,,true,,true,,,https://www.openstreetmap.org/#map=18/50.97081757533443/3.985098591072335,50.97081757533443,3.985098591072335,,true,,Mon_00:00-23:59;Tue_00:00-23:59;Wed_00:00-23:59;Thu_00:00-23:59;Fri_00:00-23:59;Sat_00:00-23:59;Sun_00:00-23:59
https://data.velopark.be/data/NMBS_154,Lede Fietsenstalling f2,NMBS,Stationsstraat 33,9340,,,https://data.velopark.be/openvelopark/terms#PublicBicycleParking,216,,true,,true,,,https://www.openstreetmap.org/#map=18/50.97032632469814/3.986002012792801,50.97032632469814,3.986002012792801,,true,,Mon_00:00-23:59;Tue_00:00-23:59;Wed_00:00-23:59;Thu_00:00-23:59;Fri_00:00-23:59;Sat_00:00-23:59;Sun_00:00-23:59
https://data.velopark.be/data/NMBS_16,Balegem-Dorp Fietsenstalling f1,NMBS,Meerlaanstraat 3,9860,,,https://data.velopark.be/openvelopark/terms#PublicBicycleParking,217,,true,,true,,,https://www.openstreetmap.org/#map=18/50.91983610285526/3.7910836202769143,50.91983610285526,3.7910836202769143,,true,,Mon_00:00-23:59;Tue_00:00-23:59;Wed_00:00-23:59;Thu_00:00-23:59;Fri_00:00-23:59;Sat_00:00-23:59;Sun_00:00-23:59
https://data.velopark.be/data/NMBS_161,Lierde Fietsenstalling f1,NMBS,Steenweg,9570,,,https://data.velopark.be/openvelopark/terms#PublicBicycleParking,84,,true,,true,,,https://www.openstreetmap.org/#map=18/50.81584075624667/3.8268698921065076,50.81584075624667,3.8268698921065076,,true,,Mon_00:00-23:59;Tue_00:00-23:59;Wed_00:00-23:59;Thu_00:00-23:59;Fri_00:00-23:59;Sat_00:00-23:59;Sun_00:00-23:59
https://data.velopark.be/data/NMBS_164,Lokeren Fietsenstalling f1,NMBS,9160 Lokeren,9160,,,https://data.velopark.be/openvelopark/terms#PublicBicycleParking,326,,true,,true,,,https://www.openstreetmap.org/#map=18/51.10786020547318/3.9854066157450903,51.10786020547318,3.9854066157450903,,true,,Mon_00:00-23:59;Tue_00:00-23:59;Wed_00:00-23:59;Thu_00:00-23:59;Fri_00:00-23:59;Sat_00:00-23:59;Sun_00:00-23:59
https://data.velopark.be/data/NMBS_165,Lokeren Fietsenstalling f2,NMBS,9160 Lokeren,9160,,,https://data.velopark.be/openvelopark/terms#PublicBicycleParking,224,,,,true,,,https://www.openstreetmap.org/#map=18/51.10706402517171/3.98604352661834,51.10706402517171,3.98604352661834,,true,,Mon_00:00-23:59;Tue_00:00-23:59;Wed_00:00-23:59;Thu_00:00-23:59;Fri_00:00-23:59;Sat_00:00-23:59;Sun_00:00-23:59
https://data.velopark.be/data/NMBS_167,Lokeren Fietsenstalling f3b,NMBS,Stationsplein 27,9160,,,https://data.velopark.be/openvelopark/terms#PublicBicycleParking,110,,,,true,,,https://www.openstreetmap.org/#map=18/51.10759625062749/3.9872315340514897,51.10759625062749,3.9872315340514897,,true,,Mon_00:00-23:59;Tue_00:00-23:59;Wed_00:00-23:59;Thu_00:00-23:59;Fri_00:00-23:59;Sat_00:00-23:59;Sun_00:00-23:59
https://data.velopark.be/data/NMBS_166,Lokeren Fietsenstalling f3a,NMBS,Stationsplein 4,9160,,,https://data.velopark.be/openvelopark/terms#PublicBicycleParking,627,,,,true,,,https://www.openstreetmap.org/#map=18/51.107471842347536/3.9873298093479175,51.107471842347536,3.9873298093479175,,true,,Mon_00:00-23:59;Tue_00:00-23:59;Wed_00:00-23:59;Thu_00:00-23:59;Fri_00:00-23:59;Sat_00:00-23:59;Sun_00:00-23:59
https://data.velopark.be/data/NMBS_17,Balegem-Zuid Fietsenstalling f1,NMBS,9860 Oosterzele,9860,,,https://data.velopark.be/openvelopark/terms#PublicBicycleParking,64,,true,,true,,,https://www.openstreetmap.org/#map=18/50.90001269656109/3.806070024037538,50.90001269656109,3.806070024037538,,true,,Mon_00:00-23:59;Tue_00:00-23:59;Wed_00:00-23:59;Thu_00:00-23:59;Fri_00:00-23:59;Sat_00:00-23:59;Sun_00:00-23:59
https://data.velopark.be/data/NMBS_174,Melle Fietsenstalling f1,NMBS,Gemeenteplein 2,9090,,,https://data.velopark.be/openvelopark/terms#PublicBicycleParking,112,,true,,true,,,https://www.openstreetmap.org/#map=18/51.00258650775372/3.7977559789213697,51.00258650775372,3.7977559789213697,,true,,Mon_00:00-23:59;Tue_00:00-23:59;Wed_00:00-23:59;Thu_00:00-23:59;Fri_00:00-23:59;Sat_00:00-23:59;Sun_00:00-23:59
https://data.velopark.be/data/NMBS_175,Melle Fietsenstalling f2,NMBS,Eikerwegel 1,9090,,,https://data.velopark.be/openvelopark/terms#PublicBicycleParking,169,,true,,true,,,https://www.openstreetmap.org/#map=18/51.00216504377065/3.798514345965975,51.00216504377065,3.798514345965975,,true,,Mon_00:00-23:59;Tue_00:00-23:59;Wed_00:00-23:59;Thu_00:00-23:59;Fri_00:00-23:59;Sat_00:00-23:59;Sun_00:00-23:59
https://data.velopark.be/data/NMBS_18,Bambrugge Fietsenstalling f1,NMBS,Kwalestraat,9420,,,https://data.velopark.be/openvelopark/terms#PublicBicycleParking,14,,true,,true,,,https://www.openstreetmap.org/#map=18/50.91359156337184/3.935406005431407,50.91359156337184,3.935406005431407,,true,,Mon_00:00-23:59;Tue_00:00-23:59;Wed_00:00-23:59;Thu_00:00-23:59;Fri_00:00-23:59;Sat_00:00-23:59;Sun_00:00-23:59
https://data.velopark.be/data/NMBS_181,Merelbeke Fietsenstalling f1,NMBS,Mellestraat 105,9050,,,https://data.velopark.be/openvelopark/terms#PublicBicycleParking,196,,true,,true,,,https://www.openstreetmap.org/#map=18/51.02011301521678/3.764034859488993,51.02011301521678,3.764034859488993,,true,,Mon_00:00-23:59;Tue_00:00-23:59;Wed_00:00-23:59;Thu_00:00-23:59;Fri_00:00-23:59;Sat_00:00-23:59;Sun_00:00-23:59
https://data.velopark.be/data/NMBS_182,Merelbeke Fietsenstalling f2,NMBS,Merelbekestationplein 16,9050,,,https://data.velopark.be/openvelopark/terms#PublicBicycleParking,96,,,,true,,,https://www.openstreetmap.org/#map=18/51.01981696549923/3.764602343611325,51.01981696549923,3.764602343611325,,true,,Mon_00:00-23:59;Tue_00:00-23:59;Wed_00:00-23:59;Thu_00:00-23:59;Fri_00:00-23:59;Sat_00:00-23:59;Sun_00:00-23:59
https://data.velopark.be/data/NMBS_189,Nieuwkerken-Waas Fietsenstalling f2,NMBS,Zonnestraat,9100,,,https://data.velopark.be/openvelopark/terms#PublicBicycleParking,112,,true,,true,,,https://www.openstreetmap.org/#map=18/51.18542717658992/4.185729122232662,51.18542717658992,4.185729122232662,,true,,Mon_00:00-23:59;Tue_00:00-23:59;Wed_00:00-23:59;Thu_00:00-23:59;Fri_00:00-23:59;Sat_00:00-23:59;Sun_00:00-23:59
https://data.velopark.be/data/NMBS_186,Moortsele Fietsenstalling f1,NMBS,9860 Oosterzele,9860,,,https://data.velopark.be/openvelopark/terms#PublicBicycleParking,72,,true,,true,,,https://www.openstreetmap.org/#map=18/50.953634258267755/3.7812059888820575,50.953634258267755,3.7812059888820575,,true,,Mon_00:00-23:59;Tue_00:00-23:59;Wed_00:00-23:59;Thu_00:00-23:59;Fri_00:00-23:59;Sat_00:00-23:59;Sun_00:00-23:59
https://data.velopark.be/data/NMBS_188,Munkzwalm Fietsenstalling f2,NMBS,Sportlaan 1,9630,,,https://data.velopark.be/openvelopark/terms#PublicBicycleParking,128,,true,,true,,,https://www.openstreetmap.org/#map=18/50.87586545882808/3.730514280304288,50.87586545882808,3.730514280304288,,true,,Mon_00:00-23:59;Tue_00:00-23:59;Wed_00:00-23:59;Thu_00:00-23:59;Fri_00:00-23:59;Sat_00:00-23:59;Sun_00:00-23:59
https://data.velopark.be/data/NMBS_190,Nieuwkerken-Waas Fietsenstalling f1,NMBS,Schuttershof 6,9100,,,https://data.velopark.be/openvelopark/terms#PublicBicycleParking,65,,true,,true,,,https://www.openstreetmap.org/#map=18/51.18524883548965/4.184413993545756,51.18524883548965,4.184413993545756,,true,,Mon_00:00-23:59;Tue_00:00-23:59;Wed_00:00-23:59;Thu_00:00-23:59;Fri_00:00-23:59;Sat_00:00-23:59;Sun_00:00-23:59
https://data.velopark.be/data/NMBS_183,Merelbeke Fietsenstalling f4,NMBS,Gentbrugge,9050,,,https://data.velopark.be/openvelopark/terms#PublicBicycleParking,58,,true,,true,,,https://www.openstreetmap.org/#map=18/51.0206351414932/3.76467430952558,51.0206351414932,3.76467430952558,,true,,Mon_00:00-23:59;Tue_00:00-23:59;Wed_00:00-23:59;Thu_00:00-23:59;Fri_00:00-23:59;Sat_00:00-23:59;Sun_00:00-23:59
https://data.velopark.be/data/NMBS_191,Ninove Fietsenstalling f1,NMBS,Fernand Tavernestraat 33,9400,,,https://data.velopark.be/openvelopark/terms#PublicBicycleParking,120,,true,,true,,,https://www.openstreetmap.org/#map=18/50.83952938332402/4.027152344309868,50.83952938332402,4.027152344309868,,true,,Mon_00:00-23:59;Tue_00:00-23:59;Wed_00:00-23:59;Thu_00:00-23:59;Fri_00:00-23:59;Sat_00:00-23:59;Sun_00:00-23:59
https://data.velopark.be/data/NMBS_193,Okegem Fietsenstalling f1,NMBS,Jan Ockeghemstraat 1,9400,,,https://data.velopark.be/openvelopark/terms#PublicBicycleParking,78,,true,,true,,,https://www.openstreetmap.org/#map=18/50.85621631696106/4.0536267904042385,50.85621631696106,4.0536267904042385,,true,,Mon_00:00-23:59;Tue_00:00-23:59;Wed_00:00-23:59;Thu_00:00-23:59;Fri_00:00-23:59;Sat_00:00-23:59;Sun_00:00-23:59
https://data.velopark.be/data/NMBS_192,Ninove Fietsenstalling f2,NMBS,Doornweg 1,9400,,,https://data.velopark.be/openvelopark/terms#PublicBicycleParking,112,,true,,true,,,https://www.openstreetmap.org/#map=18/50.8396214179516/4.026242211331781,50.8396214179516,4.026242211331781,,true,,Mon_00:00-23:59;Tue_00:00-23:59;Wed_00:00-23:59;Thu_00:00-23:59;Fri_00:00-23:59;Sat_00:00-23:59;Sun_00:00-23:59
https://data.velopark.be/data/NMBS_195,Oudegem Fietsenstalling f1,NMBS,Oudegemse Baan 135,9200,,,https://data.velopark.be/openvelopark/terms#PublicBicycleParking,104,,true,,true,,,https://www.openstreetmap.org/#map=18/51.01502318900931/4.064273067561879,51.01502318900931,4.064273067561879,,true,,Mon_00:00-23:59;Tue_00:00-23:59;Wed_00:00-23:59;Thu_00:00-23:59;Fri_00:00-23:59;Sat_00:00-23:59;Sun_00:00-23:59
https://data.velopark.be/data/NMBS_198,Oudenaarde Fietsenstalling f3,NMBS,Jozef Braetstraat,9700,,,https://data.velopark.be/openvelopark/terms#PublicBicycleParking,27,,true,,true,,,https://www.openstreetmap.org/#map=18/50.8499610721814/3.600397090584968,50.8499610721814,3.600397090584968,,true,,Mon_00:00-23:59;Tue_00:00-23:59;Wed_00:00-23:59;Thu_00:00-23:59;Fri_00:00-23:59;Sat_00:00-23:59;Sun_00:00-23:59
https://data.velopark.be/data/NMBS_196,Oudenaarde Fietsenstalling f1,NMBS,9700 Oudenaarde,9700,,,https://data.velopark.be/openvelopark/terms#PublicBicycleParking,324,,true,,true,,,https://www.openstreetmap.org/#map=18/50.851515210550986/3.602355667801148,50.851515210550986,3.602355667801148,,true,,Mon_00:00-23:59;Tue_00:00-23:59;Wed_00:00-23:59;Thu_00:00-23:59;Fri_00:00-23:59;Sat_00:00-23:59;Sun_00:00-23:59
https://data.velopark.be/data/NMBS_197,Oudenaarde Fietsenstalling f2,NMBS,9700 Oudenaarde,9700,,,https://data.velopark.be/openvelopark/terms#PublicBicycleParking,24,,true,,true,,,https://www.openstreetmap.org/#map=18/50.852120139511875/3.6014530191505263,50.852120139511875,3.6014530191505263,,true,,Mon_00:00-23:59;Tue_00:00-23:59;Wed_00:00-23:59;Thu_00:00-23:59;Fri_00:00-23:59;Sat_00:00-23:59;Sun_00:00-23:59
https://data.velopark.be/data/NMBS_2,Aalst Fietsenstalling f1,NMBS,Majoor Charles Claserstraat 20,9300,,,https://data.velopark.be/openvelopark/terms#PublicBicycleParking,869,,true,,true,,,https://www.openstreetmap.org/#map=18/50.943166524588/4.038053959796051,50.943166524588,4.038053959796051,,true,,Mon_00:00-23:59;Tue_00:00-23:59;Wed_00:00-23:59;Thu_00:00-23:59;Fri_00:00-23:59;Sat_00:00-23:59;Sun_00:00-23:59
https://data.velopark.be/data/NMBS_202,Ronse/Renaix Fietsenstalling f1,NMBS,Oudstrijderslaan 6,9600,,,https://data.velopark.be/openvelopark/terms#PublicBicycleParking,88,,true,,true,,,https://www.openstreetmap.org/#map=18/50.74236429859453/3.602144427651158,50.74236429859453,3.602144427651158,,true,,Mon_00:00-23:59;Tue_00:00-23:59;Wed_00:00-23:59;Thu_00:00-23:59;Fri_00:00-23:59;Sat_00:00-23:59;Sun_00:00-23:59
https://data.velopark.be/data/NMBS_203,Ronse/Renaix Fietsenstalling f2,NMBS,9600 Ronse,9600,,,https://data.velopark.be/openvelopark/terms#PublicBicycleParking,36,,,,true,,,https://www.openstreetmap.org/#map=18/50.741801753167096/3.6003674186689625,50.741801753167096,3.6003674186689625,,true,,Mon_00:00-23:59;Tue_00:00-23:59;Wed_00:00-23:59;Thu_00:00-23:59;Fri_00:00-23:59;Sat_00:00-23:59;Sun_00:00-23:59
https://data.velopark.be/data/NMBS_205,Schellebelle Fietsenstalling f1,NMBS,Spoorwegstraat,9260,,,https://data.velopark.be/openvelopark/terms#PublicBicycleParking,234,,true,,true,,,https://www.openstreetmap.org/#map=18/51.00317326851003/3.921671551876111,51.00317326851003,3.921671551876111,,true,,Mon_00:00-23:59;Tue_00:00-23:59;Wed_00:00-23:59;Thu_00:00-23:59;Fri_00:00-23:59;Sat_00:00-23:59;Sun_00:00-23:59
https://data.velopark.be/data/NMBS_206,Schellebelle Fietsenstalling f2,NMBS,9260 Wichelen,9260,,,https://data.velopark.be/openvelopark/terms#PublicBicycleParking,60,,true,,true,,,https://www.openstreetmap.org/#map=18/51.00295526228536/3.9216352627323525,51.00295526228536,3.9216352627323525,,true,,Mon_00:00-23:59;Tue_00:00-23:59;Wed_00:00-23:59;Thu_00:00-23:59;Fri_00:00-23:59;Sat_00:00-23:59;Sun_00:00-23:59
https://data.velopark.be/data/NMBS_207,Scheldewindeke Fietsenstalling f1,NMBS,Stationsstraat,9860,,,https://data.velopark.be/openvelopark/terms#PublicBicycleParking,72,,true,,true,,,https://www.openstreetmap.org/#map=18/50.93728433502051/3.7780361452443945,50.93728433502051,3.7780361452443945,,true,,Mon_00:00-23:59;Tue_00:00-23:59;Wed_00:00-23:59;Thu_00:00-23:59;Fri_00:00-23:59;Sat_00:00-23:59;Sun_00:00-23:59
https://data.velopark.be/data/NMBS_208,Scheldewindeke Fietsenstalling f2,NMBS,Stationsstraat,9860,,,https://data.velopark.be/openvelopark/terms#PublicBicycleParking,98,,true,,true,,,https://www.openstreetmap.org/#map=18/50.93730701309303/3.7777021935089583,50.93730701309303,3.7777021935089583,,true,,Mon_00:00-23:59;Tue_00:00-23:59;Wed_00:00-23:59;Thu_00:00-23:59;Fri_00:00-23:59;Sat_00:00-23:59;Sun_00:00-23:59
https://data.velopark.be/data/NMBS_209,Scheldewindeke Fietsenstalling f2,NMBS,Stationsstraat 72,9860,,,https://data.velopark.be/openvelopark/terms#PublicBicycleParking,98,,true,,true,,,https://www.openstreetmap.org/#map=18/50.937166052644/3.777747331541164,50.937166052644,3.777747331541164,,true,,Mon_00:00-23:59;Tue_00:00-23:59;Wed_00:00-23:59;Thu_00:00-23:59;Fri_00:00-23:59;Sat_00:00-23:59;Sun_00:00-23:59
https://data.velopark.be/data/NMBS_210,Schendelbeke Fietsenstalling f1,NMBS,Moenebroekstraat 1,9506,,,https://data.velopark.be/openvelopark/terms#PublicBicycleParking,28,,true,,true,,,https://www.openstreetmap.org/#map=18/50.79787287745145/3.8989749235908677,50.79787287745145,3.8989749235908677,,true,,Mon_00:00-23:59;Tue_00:00-23:59;Wed_00:00-23:59;Thu_00:00-23:59;Fri_00:00-23:59;Sat_00:00-23:59;Sun_00:00-23:59
https://data.velopark.be/data/NMBS_212,Schoonaarde Fietsenstalling f2,NMBS,Oude Brugstraat 2,9200,,,https://data.velopark.be/openvelopark/terms#PublicBicycleParking,54,,true,,true,,,https://www.openstreetmap.org/#map=18/51.00310209320897/4.011611013063315,51.00310209320897,4.011611013063315,,true,,Mon_00:00-23:59;Tue_00:00-23:59;Wed_00:00-23:59;Thu_00:00-23:59;Fri_00:00-23:59;Sat_00:00-23:59;Sun_00:00-23:59
https://data.velopark.be/data/NMBS_211,Schoonaarde Fietsenstalling f1,NMBS,Oude Brugstraat 2,9200,,,https://data.velopark.be/openvelopark/terms#PublicBicycleParking,99,,true,,true,,,https://www.openstreetmap.org/#map=18/51.00329835112081/4.011540322702806,51.00329835112081,4.011540322702806,,true,,Mon_00:00-23:59;Tue_00:00-23:59;Wed_00:00-23:59;Thu_00:00-23:59;Fri_00:00-23:59;Sat_00:00-23:59;Sun_00:00-23:59
https://data.velopark.be/data/NMBS_213,Serskamp Fietsenstalling f1,NMBS,Billegem 40,9260,,,https://data.velopark.be/openvelopark/terms#PublicBicycleParking,42,,true,,true,,,https://www.openstreetmap.org/#map=18/50.98509592292883/3.958233431357582,50.98509592292883,3.958233431357582,,true,,Mon_00:00-23:59;Tue_00:00-23:59;Wed_00:00-23:59;Thu_00:00-23:59;Fri_00:00-23:59;Sat_00:00-23:59;Sun_00:00-23:59
https://data.velopark.be/data/NMBS_214,Serskamp Fietsenstalling f2,NMBS,Billegem 42,9260,,,https://data.velopark.be/openvelopark/terms#PublicBicycleParking,72,,true,,true,,,https://www.openstreetmap.org/#map=18/50.984992445979884/3.958505803580473,50.984992445979884,3.958505803580473,,true,,Mon_00:00-23:59;Tue_00:00-23:59;Wed_00:00-23:59;Thu_00:00-23:59;Fri_00:00-23:59;Sat_00:00-23:59;Sun_00:00-23:59
https://data.velopark.be/data/NMBS_215,Sinaai Fietsenstalling f1,NMBS,Schrijberg 21,9111,,,https://data.velopark.be/openvelopark/terms#PublicBicycleParking,78,,true,,true,,,https://www.openstreetmap.org/#map=18/51.143462639428456/4.068325980502638,51.143462639428456,4.068325980502638,,true,,Mon_00:00-23:59;Tue_00:00-23:59;Wed_00:00-23:59;Thu_00:00-23:59;Fri_00:00-23:59;Sat_00:00-23:59;Sun_00:00-23:59
https://data.velopark.be/data/NMBS_216,Sinaai Fietsenstalling f2,NMBS,Schrijberg 39,9111,,,https://data.velopark.be/openvelopark/terms#PublicBicycleParking,72,,true,,true,,,https://www.openstreetmap.org/#map=18/51.1430551527275/4.067897888589582,51.1430551527275,4.067897888589582,,true,,Mon_00:00-23:59;Tue_00:00-23:59;Wed_00:00-23:59;Thu_00:00-23:59;Fri_00:00-23:59;Sat_00:00-23:59;Sun_00:00-23:59
https://data.velopark.be/data/NMBS_217,St-Denijs-Boekel Fietsenstalling f1,NMBS,Dries,9630,,,https://data.velopark.be/openvelopark/terms#PublicBicycleParking,48,,true,,true,,,https://www.openstreetmap.org/#map=18/50.87427145274234/3.6979489613077434,50.87427145274234,3.6979489613077434,,true,,Mon_00:00-23:59;Tue_00:00-23:59;Wed_00:00-23:59;Thu_00:00-23:59;Fri_00:00-23:59;Sat_00:00-23:59;Sun_00:00-23:59
https://data.velopark.be/data/NMBS_218,St-Denijs-Boekel Fietsenstalling f2,NMBS,Heufkensstraat 148,9630,,,https://data.velopark.be/openvelopark/terms#PublicBicycleParking,45,,true,,true,,,https://www.openstreetmap.org/#map=18/50.8741123747141/3.6981911812335997,50.8741123747141,3.6981911812335997,,true,,Mon_00:00-23:59;Tue_00:00-23:59;Wed_00:00-23:59;Thu_00:00-23:59;Fri_00:00-23:59;Sat_00:00-23:59;Sun_00:00-23:59
https://data.velopark.be/data/NMBS_219,St-Gillis Fietsenstalling f1,NMBS,Pastoor Claeysstraat,9200,,,https://data.velopark.be/openvelopark/terms#PublicBicycleParking,26,,true,,true,,,https://www.openstreetmap.org/#map=18/51.02167915618696/4.118133182166519,51.02167915618696,4.118133182166519,,true,,Mon_00:00-23:59;Tue_00:00-23:59;Wed_00:00-23:59;Thu_00:00-23:59;Fri_00:00-23:59;Sat_00:00-23:59;Sun_00:00-23:59
https://data.velopark.be/data/NMBS_226,Sleidinge Fietsenstalling f1,NMBS,Weststraat 131,9940,,,https://data.velopark.be/openvelopark/terms#PublicBicycleParking,94,,true,,true,,,https://www.openstreetmap.org/#map=18/51.12618414925557/3.6677570642471657,51.12618414925557,3.6677570642471657,,true,,Mon_00:00-23:59;Tue_00:00-23:59;Wed_00:00-23:59;Thu_00:00-23:59;Fri_00:00-23:59;Sat_00:00-23:59;Sun_00:00-23:59
https://data.velopark.be/data/NMBS_228,Temse Fietsenstalling f1,NMBS,Stationsplein,9140,,,https://data.velopark.be/openvelopark/terms#PublicBicycleParking,234,,true,,true,,,https://www.openstreetmap.org/#map=18/51.12640675718461/4.221427353730133,51.12640675718461,4.221427353730133,,true,,Mon_00:00-23:59;Tue_00:00-23:59;Wed_00:00-23:59;Thu_00:00-23:59;Fri_00:00-23:59;Sat_00:00-23:59;Sun_00:00-23:59
https://data.velopark.be/data/NMBS_222,St-Niklaas Fietsenstalling f1,NMBS,Stationstunnel,9100,,,https://data.velopark.be/openvelopark/terms#PublicBicycleParking,1084,,true,,true,,,https://www.openstreetmap.org/#map=18/51.17126921482839/4.14386562392375,51.17126921482839,4.14386562392375,,true,,Mon_00:00-23:59;Tue_00:00-23:59;Wed_00:00-23:59;Thu_00:00-23:59;Fri_00:00-23:59;Sat_00:00-23:59;Sun_00:00-23:59
https://data.velopark.be/data/NMBS_223,St-Niklaas Fietsenstalling f2,NMBS,Noordlaan 32,9100,,,https://data.velopark.be/openvelopark/terms#PublicBicycleParking,352,,,,true,,,https://www.openstreetmap.org/#map=18/51.17246896188627/4.144535923737392,51.17246896188627,4.144535923737392,,true,,Mon_00:00-23:59;Tue_00:00-23:59;Wed_00:00-23:59;Thu_00:00-23:59;Fri_00:00-23:59;Sat_00:00-23:59;Sun_00:00-23:59
https://data.velopark.be/data/NMBS_225,St-Niklaas Fietsenstalling f4,NMBS,Stationstunnel,9100,,,https://data.velopark.be/openvelopark/terms#PublicBicycleParking,198,,true,,true,,,https://www.openstreetmap.org/#map=18/51.171391348275435/4.144141592373917,51.171391348275435,4.144141592373917,,true,,Mon_00:00-23:59;Tue_00:00-23:59;Wed_00:00-23:59;Thu_00:00-23:59;Fri_00:00-23:59;Sat_00:00-23:59;Sun_00:00-23:59
https://data.velopark.be/data/NMBS_224,St-Niklaas Fietsenstalling f3,NMBS,Noordlaan,9100,,,https://data.velopark.be/openvelopark/terms#PublicBicycleParking,168,,,,true,,,https://www.openstreetmap.org/#map=18/51.17213221493993/4.14353879216525,51.17213221493993,4.14353879216525,,true,,Mon_00:00-23:59;Tue_00:00-23:59;Wed_00:00-23:59;Thu_00:00-23:59;Fri_00:00-23:59;Sat_00:00-23:59;Sun_00:00-23:59
https://data.velopark.be/data/NMBS_227,Sleidinge Fietsenstalling f1,NMBS,Weststraat,9940,,,https://data.velopark.be/openvelopark/terms#PublicBicycleParking,94,,true,,true,,,https://www.openstreetmap.org/#map=18/51.12596145430402/3.668103645377247,51.12596145430402,3.668103645377247,,true,,Mon_00:00-23:59;Tue_00:00-23:59;Wed_00:00-23:59;Thu_00:00-23:59;Fri_00:00-23:59;Sat_00:00-23:59;Sun_00:00-23:59
https://data.velopark.be/data/NMBS_229,Terhagen Fietsenstalling f1,NMBS,Azaleastraat,9552,,,https://data.velopark.be/openvelopark/terms#PublicBicycleParking,30,,true,,true,,,https://www.openstreetmap.org/#map=18/50.901596814290755/3.8963036613129383,50.901596814290755,3.8963036613129383,,true,,Mon_00:00-23:59;Tue_00:00-23:59;Wed_00:00-23:59;Thu_00:00-23:59;Fri_00:00-23:59;Sat_00:00-23:59;Sun_00:00-23:59
https://data.velopark.be/data/NMBS_23,Beervelde Fietsenstalling f1,NMBS,Beerveldse Baan,9080,,,https://data.velopark.be/openvelopark/terms#PublicBicycleParking,126,,true,,true,,,https://www.openstreetmap.org/#map=18/51.087008517050194/3.8796443218234886,51.087008517050194,3.8796443218234886,,true,,Mon_00:00-23:59;Tue_00:00-23:59;Wed_00:00-23:59;Thu_00:00-23:59;Fri_00:00-23:59;Sat_00:00-23:59;Sun_00:00-23:59
https://data.velopark.be/data/NMBS_24,Bellem Fietsenstalling f1,NMBS,Lotenhullestraat 72,9881,,,https://data.velopark.be/openvelopark/terms#PublicBicycleParking,136,,true,,true,,,https://www.openstreetmap.org/#map=18/51.08364236266602/3.4882970380016447,51.08364236266602,3.4882970380016447,,true,,Mon_00:00-23:59;Tue_00:00-23:59;Wed_00:00-23:59;Thu_00:00-23:59;Fri_00:00-23:59;Sat_00:00-23:59;Sun_00:00-23:59
https://data.velopark.be/data/NMBS_240,Viane-Moerbeke Fietsenstalling f1,NMBS,9500 Geraardsbergen,9500,,,https://data.velopark.be/openvelopark/terms#PublicBicycleParking,56,,true,,true,,,https://www.openstreetmap.org/#map=18/50.75178481439955/3.9170905219621064,50.75178481439955,3.9170905219621064,,true,,Mon_00:00-23:59;Tue_00:00-23:59;Wed_00:00-23:59;Thu_00:00-23:59;Fri_00:00-23:59;Sat_00:00-23:59;Sun_00:00-23:59
https://data.velopark.be/data/NMBS_241,Viane-Moerbeke Fietsenstalling f2,NMBS,Edingseweg 313,9500,,,https://data.velopark.be/openvelopark/terms#PublicBicycleParking,28,,true,,true,,,https://www.openstreetmap.org/#map=18/50.752045117995024/3.9170923396661035,50.752045117995024,3.9170923396661035,,true,,Mon_00:00-23:59;Tue_00:00-23:59;Wed_00:00-23:59;Thu_00:00-23:59;Fri_00:00-23:59;Sat_00:00-23:59;Sun_00:00-23:59
https://data.velopark.be/data/NMBS_244,Vijfhuizen Fietsenstalling f1,NMBS,Gentsesteenweg 134,9420,,,https://data.velopark.be/openvelopark/terms#PublicBicycleParking,28,,true,,true,,,https://www.openstreetmap.org/#map=18/50.94345992057829/3.983127236839068,50.94345992057829,3.983127236839068,,true,,Mon_00:00-23:59;Tue_00:00-23:59;Wed_00:00-23:59;Thu_00:00-23:59;Fri_00:00-23:59;Sat_00:00-23:59;Sun_00:00-23:59
https://data.velopark.be/data/NMBS_245,Waarschoot Fietsenstalling f1,NMBS,Hoekje,9950,,,https://data.velopark.be/openvelopark/terms#PublicBicycleParking,112,,true,,true,,,https://www.openstreetmap.org/#map=18/51.15466229658319/3.6143985852009584,51.15466229658319,3.6143985852009584,,true,,Mon_00:00-23:59;Tue_00:00-23:59;Wed_00:00-23:59;Thu_00:00-23:59;Fri_00:00-23:59;Sat_00:00-23:59;Sun_00:00-23:59
https://data.velopark.be/data/NMBS_251,Welle Fietsenstalling f1,NMBS,Hertstraat 68,9473,,,https://data.velopark.be/openvelopark/terms#PublicBicycleParking,20,,,,true,,,https://www.openstreetmap.org/#map=18/50.9032101109478/4.050821144552105,50.9032101109478,4.050821144552105,,true,,Mon_00:00-23:59;Tue_00:00-23:59;Wed_00:00-23:59;Thu_00:00-23:59;Fri_00:00-23:59;Sat_00:00-23:59;Sun_00:00-23:59
https://data.velopark.be/data/NMBS_25,Bellem Fietsenstalling f2,NMBS,Bellemstation 1,9881,,,https://data.velopark.be/openvelopark/terms#PublicBicycleParking,44,,true,,true,,,https://www.openstreetmap.org/#map=18/51.083420133906905/3.488272348626246,51.083420133906905,3.488272348626246,,true,,Mon_00:00-23:59;Tue_00:00-23:59;Wed_00:00-23:59;Thu_00:00-23:59;Fri_00:00-23:59;Sat_00:00-23:59;Sun_00:00-23:59
https://data.velopark.be/data/NMBS_255,Wetteren Fietsenstalling f1,NMBS,9230 Wetteren,9230,,,https://data.velopark.be/openvelopark/terms#PublicBicycleParking,162,,true,,true,,,https://www.openstreetmap.org/#map=18/51.00160949049423/3.8831809290802926,51.00160949049423,3.8831809290802926,,true,,Mon_00:00-23:59;Tue_00:00-23:59;Wed_00:00-23:59;Thu_00:00-23:59;Fri_00:00-23:59;Sat_00:00-23:59;Sun_00:00-23:59
https://data.velopark.be/data/NMBS_26,Belsele Fietsenstalling f1,NMBS,Heiakker,9111,,,https://data.velopark.be/openvelopark/terms#PublicBicycleParking,72,,true,,true,,,https://www.openstreetmap.org/#map=18/51.15079159096418/4.087780962428951,51.15079159096418,4.087780962428951,,true,,Mon_00:00-23:59;Tue_00:00-23:59;Wed_00:00-23:59;Thu_00:00-23:59;Fri_00:00-23:59;Sat_00:00-23:59;Sun_00:00-23:59
https://data.velopark.be/data/NMBS_259,Wichelen Fietsenstalling f1,NMBS,Spoorweglaan,9260,,,https://data.velopark.be/openvelopark/terms#PublicBicycleParking,75,,true,,true,,,https://www.openstreetmap.org/#map=18/51.00198603871441/3.969818917475653,51.00198603871441,3.969818917475653,,true,,Mon_00:00-23:59;Tue_00:00-23:59;Wed_00:00-23:59;Thu_00:00-23:59;Fri_00:00-23:59;Sat_00:00-23:59;Sun_00:00-23:59
https://data.velopark.be/data/NMBS_260,Wichelen Fietsenstalling f2,NMBS,Paepestraat 4,9260,,,https://data.velopark.be/openvelopark/terms#PublicBicycleParking,36,,true,,true,,,https://www.openstreetmap.org/#map=18/51.001790368537314/3.969654809766742,51.001790368537314,3.969654809766742,,true,,Mon_00:00-23:59;Tue_00:00-23:59;Wed_00:00-23:59;Thu_00:00-23:59;Fri_00:00-23:59;Sat_00:00-23:59;Sun_00:00-23:59
https://data.velopark.be/data/NMBS_265,Wondelgem Fietsenstalling f1,NMBS,Wondelgemstationplein,9032,,,https://data.velopark.be/openvelopark/terms#PublicBicycleParking,42,,true,,true,,,https://www.openstreetmap.org/#map=18/51.0895460041799/3.7196031719249647,51.0895460041799,3.7196031719249647,,true,,Mon_00:00-23:59;Tue_00:00-23:59;Wed_00:00-23:59;Thu_00:00-23:59;Fri_00:00-23:59;Sat_00:00-23:59;Sun_00:00-23:59
https://data.velopark.be/data/NMBS_266,Zandbergen Fietsenstalling f1,NMBS,Jan de Coomanstraat 49,9506,,,https://data.velopark.be/openvelopark/terms#PublicBicycleParking,42,,true,,true,,,https://www.openstreetmap.org/#map=18/50.806805383990785/3.9579599277711126,50.806805383990785,3.9579599277711126,,true,,Mon_00:00-23:59;Tue_00:00-23:59;Wed_00:00-23:59;Thu_00:00-23:59;Fri_00:00-23:59;Sat_00:00-23:59;Sun_00:00-23:59
https://data.velopark.be/data/NMBS_27,Belsele Fietsenstalling f2,NMBS,Kerkstraat,9111,,,https://data.velopark.be/openvelopark/terms#PublicBicycleParking,50,,true,,true,,,https://www.openstreetmap.org/#map=18/51.15058482928754/4.087894721466509,51.15058482928754,4.087894721466509,,true,,Mon_00:00-23:59;Tue_00:00-23:59;Wed_00:00-23:59;Thu_00:00-23:59;Fri_00:00-23:59;Sat_00:00-23:59;Sun_00:00-23:59
https://data.velopark.be/data/NMBS_272,Temse Fietsenstalling f2,NMBS,Stationsplein,9140,,,https://data.velopark.be/openvelopark/terms#PublicBicycleParking,56,,true,,true,,,https://www.openstreetmap.org/#map=18/51.12582984046947/4.221318450366784,51.12582984046947,4.221318450366784,,true,,Mon_00:00-23:59;Tue_00:00-23:59;Wed_00:00-23:59;Thu_00:00-23:59;Fri_00:00-23:59;Sat_00:00-23:59;Sun_00:00-23:59
https://data.velopark.be/data/NMBS_274,Zele Fietsenstalling f2,NMBS,Spoorwegstraat 1A,9240,,,https://data.velopark.be/openvelopark/terms#PublicBicycleParking,96,,,,true,,,https://www.openstreetmap.org/#map=18/51.073140030490826/4.041804757767623,51.073140030490826,4.041804757767623,,true,,Mon_00:00-23:59;Tue_00:00-23:59;Wed_00:00-23:59;Thu_00:00-23:59;Fri_00:00-23:59;Sat_00:00-23:59;Sun_00:00-23:59
https://data.velopark.be/data/NMBS_273,Zele Fietsenstalling f1,NMBS,Spoorwegstraat 5,9240,,,https://data.velopark.be/openvelopark/terms#PublicBicycleParking,356,,true,,true,,,https://www.openstreetmap.org/#map=18/51.073399287871474/4.0410932183784105,51.073399287871474,4.0410932183784105,,true,,Mon_00:00-23:59;Tue_00:00-23:59;Wed_00:00-23:59;Thu_00:00-23:59;Fri_00:00-23:59;Sat_00:00-23:59;Sun_00:00-23:59
https://data.velopark.be/data/NMBS_28,Beveren Fietsenstalling f1,NMBS,Stationsplein 3,9120,,,https://data.velopark.be/openvelopark/terms#PublicBicycleParking,246,,true,,true,,,https://www.openstreetmap.org/#map=18/51.20860703437002/4.260167285820077,51.20860703437002,4.260167285820077,,true,,Mon_00:00-23:59;Tue_00:00-23:59;Wed_00:00-23:59;Thu_00:00-23:59;Fri_00:00-23:59;Sat_00:00-23:59;Sun_00:00-23:59
https://data.velopark.be/data/NMBS_283,Deinze Fietsenstalling f1,NMBS,Statieplein,9800,,,https://data.velopark.be/openvelopark/terms#PublicBicycleParking,924,,true,,true,,,https://www.openstreetmap.org/#map=18/50.97812653095248/3.5339283444274256,50.97812653095248,3.5339283444274256,,true,,Mon_00:00-23:59;Tue_00:00-23:59;Wed_00:00-23:59;Thu_00:00-23:59;Fri_00:00-23:59;Sat_00:00-23:59;Sun_00:00-23:59
https://data.velopark.be/data/NMBS_284,Deinze Fietsenstalling f2,NMBS,Statieplein,9800,,,https://data.velopark.be/openvelopark/terms#PublicBicycleParking,446,,true,,true,,,https://www.openstreetmap.org/#map=18/50.977974304069484/3.533391732956621,50.977974304069484,3.533391732956621,,true,,Mon_00:00-23:59;Tue_00:00-23:59;Wed_00:00-23:59;Thu_00:00-23:59;Fri_00:00-23:59;Sat_00:00-23:59;Sun_00:00-23:59
https://data.velopark.be/data/NMBS_285,Deinze Fietsenstalling f2,NMBS,9800 Deinze,9800,,,https://data.velopark.be/openvelopark/terms#PublicBicycleParking,446,,true,,true,,,https://www.openstreetmap.org/#map=18/50.97767616460846/3.5335893990434357,50.97767616460846,3.5335893990434357,,true,,Mon_00:00-23:59;Tue_00:00-23:59;Wed_00:00-23:59;Thu_00:00-23:59;Fri_00:00-23:59;Sat_00:00-23:59;Sun_00:00-23:59
https://data.velopark.be/data/NMBS_286,Zingem Fietsenstalling f1,NMBS,Groenstraat 38,9750,,,https://data.velopark.be/openvelopark/terms#PublicBicycleParking,165,,true,,true,,,https://www.openstreetmap.org/#map=18/50.90745115083104/3.6463597880508236,50.90745115083104,3.6463597880508236,,true,,Mon_00:00-23:59;Tue_00:00-23:59;Wed_00:00-23:59;Thu_00:00-23:59;Fri_00:00-23:59;Sat_00:00-23:59;Sun_00:00-23:59
https://data.velopark.be/data/NMBS_287,Zingem Fietsenstalling f2,NMBS,Biesstraat 62,9890,,,https://data.velopark.be/openvelopark/terms#PublicBicycleParking,30,,,,true,,,https://www.openstreetmap.org/#map=18/50.9102431925314/3.6465109299403675,50.9102431925314,3.6465109299403675,,true,,Mon_00:00-23:59;Tue_00:00-23:59;Wed_00:00-23:59;Thu_00:00-23:59;Fri_00:00-23:59;Sat_00:00-23:59;Sun_00:00-23:59
https://data.velopark.be/data/NMBS_29,Beveren Fietsenstalling f2,NMBS,Kruibekesteenweg 8,9120,,,https://data.velopark.be/openvelopark/terms#PublicBicycleParking,28,,true,,true,,,https://www.openstreetmap.org/#map=18/51.207937680864624/4.258676159144062,51.207937680864624,4.258676159144062,,true,,Mon_00:00-23:59;Tue_00:00-23:59;Wed_00:00-23:59;Thu_00:00-23:59;Fri_00:00-23:59;Sat_00:00-23:59;Sun_00:00-23:59
https://data.velopark.be/data/NMBS_288,Zottegem Fietsenstalling f1,NMBS,Musselystraat 3,9620,,,https://data.velopark.be/openvelopark/terms#PublicBicycleParking,166,,true,,true,,,https://www.openstreetmap.org/#map=18/50.869487171256964/3.814285373147728,50.869487171256964,3.814285373147728,,true,,Mon_00:00-23:59;Tue_00:00-23:59;Wed_00:00-23:59;Thu_00:00-23:59;Fri_00:00-23:59;Sat_00:00-23:59;Sun_00:00-23:59
